_id,id,parc,pin,address,owner,parc_sq_ft,class,zoned_as,inventory_type,current_status,acquisition_method,acquisition_date,last_updated,latitude,longitude,census_tract,neighborhood_name,council_district,ward,fire_zone,police_zone,dpw_streets,dpw_enviro,dpw_parks
1927591,184134,,,245  E JEFFERSON ST,City of Pittsburgh,800,Vacant Land,R1A-VH,Public Sale,Sale Pending,Treasurer Sale,2015-08-14,2023-04-11,40.4587810943,-80.0114114153,42003250300,Central Northside,1,25,1-21,1,1,Northern,Riverview
1927592,174984,,,2716 CALIFORNIA AVE,City of Pittsburgh,2127,Vacant Land,R1A-H,Public Sale,Sale Pending,Treasurer Sale,1984-11-28,2023-04-14,40.4685495233,-80.0351709874,42003271500,Marshall-Shadeland,6,27,1-14,1,1,Northern,Riverview
1927593,1071618,,,2435 PERRYSVILLE AVE,City of Pittsburgh,5799,Vacant Land,R1D-H,Public Sale,Sale Pending,Treasurer Sale,2019-10-18,2023-04-03,40.4684227961,-80.0101012054,42003261400,Perry South,6,26,1-12,1,1,Northern,Riverview
1927594,178825,,,0051 ARENDELL ST,City of Pittsburgh,2130,Vacant Land,P,Public Sale,Sale Pending,Treasurer Sale,1953-06-01,2023-04-21,40.4920320531,-80.0272606761,42003260200,Perry North,1,26,1-15,1,1,Northern,Riverview
1927595,173553,,,858 CALIFORNIA AVE,City of Pittsburgh,2266,Vacant Land,RM-M,URA Transfer,Sale Pending,Treasurer Sale,1993-09-20,2023-04-26,40.4594967826,-80.0189687286,42003250700,California-Kirkbride,6,25,1-9,1,1,Northern,Riverview
1927596,959217,,,1716 BRIGHTON PL,City of Pittsburgh,4330,Vacant Land,R1A-M,URA Transfer,Sale Pending,Treasurer Sale,2017-06-16,2023-04-26,40.4587562711,-80.0171193146,42003250700,California-Kirkbride,1,25,1-21,1,1,Northern,Riverview
1927597,179342,,,708 N HOMEWOOD AVE,City of Pittsburgh,2700,Vacant Land,LNC,URA Transfer,Available for Sale,Treasurer Sale,2009-11-20,2023-04-17,40.4557269542,-79.8966193022,42003130300,Homewood South,9,13,3-17,5,2,Eastern,Frick
1927598,184609,,,7213  BENNETT ST,City of Pittsburgh,1520,Vacant Land,RM-M,URA Transfer,Available for Sale,Treasurer Sale,1985-10-07,2023-04-17,40.45653203629339,-79.89597642029013,42003130300,Homewood South,9,13,3-17,5,2,Eastern,Frick
1927599,184608,,,7215  FELICIA WA,City of Pittsburgh,1432,Vacant Land,RM-M,URA Transfer,Available for Sale,Treasurer Sale,1981-12-07,2023-04-17,40.456699770169486,-79.89587564377965,42003130300,Homewood South,9,13,3-17,5,2,Eastern,Frick
1927600,184607,,,7215  BENNETT ST,City of Pittsburgh,1933,Vacant Land,RM-M,URA Transfer,Available for Sale,Treasurer Sale,1981-12-07,2023-04-17,40.45652028549555,-79.89591029961481,42003130300,Homewood South,9,13,3-17,5,2,Eastern,Frick
1927601,180021,,,7537 SUSQUEHANNA ST,City of Pittsburgh,2000,Vacant Land,R1A-VH,URA Transfer,Sale Pending,Treasurer Sale,2011-07-29,2023-04-26,40.4516101898,-79.8923811005,42003130300,Homewood South,9,13,3-17,5,2,Eastern,Frick
1927602,185179,,,7539  SUSQUEHANNA ST,City of Pittsburgh,1900,Building,R1A-VH,URA Transfer,Sale Pending,Treasurer Sale,2013-04-26,2023-04-26,40.45158353969222,-79.89230147530108,42003130300,Homewood South,9,13,3-17,5,2,Eastern,Frick
1927603,1079873,,,0 PAXICO ST,City of Pittsburgh,1675,Vacant Land,R1D-L,Public Sale,Sale Pending,Treasurer Sale,2020-12-18,2023-04-11,40.4738896371,-79.8880018006,42003561900,Lincoln-Lemington-Belmar,9,12,3-18,5,2,Eastern,Highland
1927604,983078,,,7165 VERONA BLVD,City of Pittsburgh,2340,Vacant Land,R1D-L,Public Sale,Sale Pending,Treasurer Sale,2017-10-27,2023-04-11,40.4739087074,-79.8882094493,42003561900,Lincoln-Lemington-Belmar,9,12,3-18,5,2,Eastern,Highland
1927605,184192,,,1351  MONTEZUMA ST,City of Pittsburgh,3600,Vacant Land,RM-M,Public Sale,Sale Pending,Treasurer Sale,2015-04-24,2023-04-20,40.468772403590826,-79.89868696813093,42003120300,Lincoln-Lemington-Belmar,9,12,3-15,5,2,Eastern,Highland
1927606,178993,,,7135 VASSAR ST,City of Pittsburgh,2500,Vacant Land,RM-M,Public Sale,Sale Pending,Treasurer Sale,1983-07-18,2023-04-11,40.4671924983,-79.8956019555,42003561900,Lincoln-Lemington-Belmar,9,12,3-18,5,2,Eastern,Highland
1927607,1083331,,,12 MONACA PL,City of Pittsburgh,169,Vacant Land,RM-M,Public Sale,Sale Pending,Treasurer Sale,2021-12-17,2023-04-11,40.4459763059,-79.9846819335,42003030500,Crawford-Roberts,6,3,2-1,2,3,Central,Schenley
1927608,184565,,,MUSGRAVE ST,City of Pittsburgh,982,Vacant Land,H,Public Sale,Sale Pending,Unknown,2013-03-27,2023-04-05,40.4242784763,-79.9459312837,42003151600,Greenfield,5,15,2-12,4,3,Eastern,Schenley
1927609,977841,,,324 ORCHARD PL,City of Pittsburgh,2500,Vacant Land,R1D-H,Public Sale,Sale Pending,Treasurer Sale,2017-09-01,2023-04-19,40.4177486853,-79.9942995423,42003300100,Knoxville,3,30,4-21,3,4,Southern,McKinley
1927610,1011493,,,1525 ABSTRACT AVE,City of Pittsburgh,6000,Vacant Land,R1D-L,Public Sale,Sale Pending,Treasurer Sale,2019-08-16,2023-04-11,40.4020607612,-80.0037588417,42003191700,Brookline,4,19,4-25,6,4,Southern,McKinley
1927611,550141,,,2922  BANKSVILLE AVE,City of Pittsburgh,,Vacant Land,R1D-L,Public Sale,Sale Pending,Treasurer Sale,2016-04-29,2023-04-26,40.4034286354,-80.0419175614,42003202300,Banksville,2,20,4-9,6,5,Northern,Emerald
1927612,989791,,,1620 HATTERAS ST,City of Pittsburgh,1518,Building,R1D-H,CDC Property Reserve,Sale Pending,Treasurer Sale,2018-10-19,2019-04-22,40.4638206984,-79.9837413115,42003240600,Troy Hill,1,24,1-2,1,1,Northern,Riverview
1927613,989792,,,1806 LEY ST,City of Pittsburgh,1079,Building,R1D-H,CDC Property Reserve,Sale Pending,Treasurer Sale,2018-10-19,2019-04-22,40.464843282,-79.9822783435,42003240600,Troy Hill,1,24,1-2,1,1,Northern,Riverview
1927614,989794,,,115 FOUNTAIN ST,City of Pittsburgh,2940,Vacant Land,RM-M,Public Sale,Available for Sale,Treasurer Sale,2018-10-19,2019-04-22,40.4590881286,-80.0014346038,42003250900,Fineview,1,25,1-10,1,1,Northern,Riverview
1927615,989817,,,2312 GERSHON ST,City of Pittsburgh,18561,Vacant Land,H,URA Transfer,Available for Sale,Treasurer Sale,2018-10-19,2019-04-22,40.4692588237,-80.0000575973,42003262000,Spring Hill-City View,1,26,1-11,1,1,Northern,Riverview
1927616,989820,,,2839 PERRYSVILLE AVE,City of Pittsburgh,5439,Vacant Land,R1D-H,URA Transfer,Available for Sale,Treasurer Sale,2018-10-19,2019-04-22,40.4745038851,-80.0111469805,42003261500,Perry South,1,26,1-23,1,1,Northern,Riverview
1927617,989821,,,2829 PERRYSVILLE AVE,City of Pittsburgh,17151,Vacant Land,R1D-H,URA Transfer,Available for Sale,Treasurer Sale,2018-10-19,2019-04-22,40.4743137513,-80.010749095,42003261500,Perry South,1,26,1-23,1,1,Northern,Riverview
1927618,989824,,,2326 ATMORE ST,City of Pittsburgh,1300,Building,R1A-VH,Public Sale,Available for Sale,Treasurer Sale,2018-10-19,2019-04-22,40.4630308434,-80.0302457306,42003270400,Marshall-Shadeland,1,27,1-9,1,1,Northern,Riverview
1927619,989825,,,2315 ATMORE ST,City of Pittsburgh,1320,Building,R1A-VH,Public Sale,Available for Sale,Treasurer Sale,2018-10-19,2019-04-22,40.4628016335,-80.0306022343,42003270400,Marshall-Shadeland,1,27,1-9,1,1,Northern,Riverview
1927620,989771,,,550 WYOLA ST,City of Pittsburgh,7200,Vacant Land,R1A-H,Hold for Study,Unknown,Treasurer Sale,2018-10-19,2019-04-22,40.4334341831,-80.0245568901,42003191100,Duquesne Heights,2,19,4-1,3,5,Southern,Emerald
1927621,989772,,,545 WYOLA ST,City of Pittsburgh,3600,Vacant Land,R1A-H,Hold for Study,Unknown,Treasurer Sale,2018-10-19,2019-04-22,40.4335837638,-80.0244696149,42003191100,Duquesne Heights,2,19,4-1,3,5,Southern,Emerald
1927622,989773,,,0 WYOLA ST,City of Pittsburgh,3600,Vacant Land,R1A-H,Hold for Study,Unknown,Treasurer Sale,2018-10-19,2019-04-22,40.4336811291,-80.0244159718,42003191100,Duquesne Heights,2,19,4-1,3,5,Southern,Emerald
1927623,954331,,,155 FAIRVIEW AVE,City of Pittsburgh,2500,Vacant Land,H,Public Sale,Sale Pending,,2013-10-25,2019-04-01,40.4440805045,-80.036847624,42003562600,Elliott,2,20,1-17,6,5,Northern,Emerald
1927624,989779,,,0 MERWYN AVE,City of Pittsburgh,2500,Vacant Land,H,Public Sale,Available for Sale,Treasurer Sale,2018-10-19,2019-04-22,40.4542889533,-80.0490216902,42003562500,Sheraden,2,20,1-16,6,5,Northern,Emerald
1927625,989780,,,2724 MERWYN AVE,City of Pittsburgh,2500,Vacant Land,H,Public Sale,Available for Sale,Treasurer Sale,2018-10-19,2019-04-22,40.4543421749,-80.0490765052,42003562500,Sheraden,2,20,1-16,6,5,Northern,Emerald
1927626,989777,,,922 ELKTON ST,City of Pittsburgh,2542,Building,R1D-M,URA Transfer,Available for Sale,Treasurer Sale,2018-10-19,2019-04-22,40.446610835,-80.0355062132,42003562600,Elliott,2,20,1-17,6,5,Northern,Emerald
1927627,989778,,,920 ELKTON ST,City of Pittsburgh,2458,Building,R1D-M,URA Transfer,Available for Sale,Treasurer Sale,2018-10-19,2019-04-22,40.4465635744,-80.0354443488,42003562600,Elliott,2,20,1-17,6,5,Northern,Emerald
1927628,989781,,,3256 ADENA ST,City of Pittsburgh,2240,Vacant Land,H,URA Transfer,Available for Sale,Treasurer Sale,2018-10-19,2019-04-22,40.4601378773,-80.0544468063,42003562500,Sheraden,2,20,1-16,6,5,Northern,Emerald
1927629,989783,,,0 STADIUM ST,City of Pittsburgh,3400,Vacant Land,H,URA Transfer,Available for Sale,Treasurer Sale,2018-10-19,2019-04-22,40.4598664729,-80.0569418985,42003562500,Sheraden,2,20,1-16,6,5,Northern,Emerald
1927630,989784,,,522 STADIUM ST,City of Pittsburgh,2500,Vacant Land,H,URA Transfer,Available for Sale,Treasurer Sale,2018-10-19,2019-04-22,40.4598469192,-80.0570419174,42003562500,Sheraden,2,20,1-16,6,5,Northern,Emerald
1927631,989785,,,3252 SLOPE ST,City of Pittsburgh,7500,Vacant Land,H,URA Transfer,Available for Sale,Treasurer Sale,2018-10-19,2019-04-22,40.4588056558,-80.0571982944,42003562500,Sheraden,2,20,1-16,6,5,Northern,Emerald
1927632,989789,,,3023 CHARTIERS AVE,City of Pittsburgh,6740,Vacant Land,H,URA Transfer,Available for Sale,Treasurer Sale,2018-10-19,2019-04-22,40.4539447539,-80.0589487859,42003202200,Sheraden,2,20,1-16,6,5,Northern,Emerald
1927633,989782,,,3301 SLOPE ST,City of Pittsburgh,4246,Vacant Land,H,Hold for Study,Unknown,Treasurer Sale,2018-10-19,2019-04-22,40.458836146,-80.0579027505,42003562500,Sheraden,2,20,1-16,6,5,Northern,Emerald
1927634,989786,,,3259 SLOPE ST,City of Pittsburgh,3626,Building,H,Hold for Study,Unknown,Treasurer Sale,2018-10-19,2019-04-22,40.458794936,-80.0578242661,42003562500,Sheraden,2,20,1-16,6,5,Northern,Emerald
1927635,989787,,,3253 SLOPE ST,City of Pittsburgh,1287,Vacant Land,H,Hold for Study,Unknown,Treasurer Sale,2018-10-19,2019-04-22,40.4586780151,-80.0575819701,42003562500,Sheraden,2,20,1-16,6,5,Northern,Emerald
1927636,989826,,,524 KEMP ST,City of Pittsburgh,2500,Vacant Land,H,URA Transfer,Available for Sale,Treasurer Sale,2018-10-19,2019-04-22,40.4303177113,-80.043595037,42003563100,Westwood,2,28,1-18,6,5,Northern,Emerald
1927637,989832,,,1 CLAIRTONICA ST,City of Pittsburgh,2528,Vacant Land,R2-L,URA Transfer,Unknown,Treasurer Sale,2018-10-19,2019-04-22,40.4382655052,-80.0562295864,42003281500,Crafton Heights,2,28,1-18,6,5,Northern,Emerald
1927638,989834,,,419 FAIRYWOOD ST,City of Pittsburgh,3000,Building,R1D-L,URA Transfer,Available for Sale,Treasurer Sale,2018-10-19,2019-04-22,40.4475166651,-80.0804652395,42003563000,Fairywood,2,28,1-16,6,5,Northern,Emerald
1927639,989835,,,0 SUMMERDALE ST,City of Pittsburgh,56628,Vacant Land,P,URA Transfer,Available for Sale,Treasurer Sale,2018-10-19,2019-04-22,40.4558937455,-80.0752548271,42003563000,Windgap,2,28,1-16,6,5,Northern,Emerald
1927640,989827,,,0 TRANTER ST,City of Pittsburgh,4895,Vacant Land,P,Hold for Study,Unknown,Treasurer Sale,2018-10-19,2019-04-22,40.4389265184,-80.0492959686,42003281500,Crafton Heights,2,28,1-17,6,5,Northern,Emerald
1927641,989828,,,0 TRANTER ST,City of Pittsburgh,4200,Vacant Land,P,Hold for Study,Unknown,Treasurer Sale,2018-10-19,2019-04-22,40.4391109151,-80.0493176947,42003281500,Crafton Heights,2,28,1-17,6,5,Northern,Emerald
1927642,989829,,,0 NEVA ST,City of Pittsburgh,47611,Vacant Land,R2-L,Hold for Study,Unknown,Treasurer Sale,2018-10-19,2019-04-22,40.4391832239,-80.0481820267,42003281500,Crafton Heights,2,28,1-17,6,5,Northern,Emerald
1927643,989830,,,0 NEVA ST,City of Pittsburgh,47611,Vacant Land,P,Hold for Study,Unknown,Treasurer Sale,2018-10-19,2019-04-22,40.4387801227,-80.0481691315,42003281500,Crafton Heights,2,28,1-17,6,5,Northern,Emerald
1927644,989831,,,0 MAGNUS ST,City of Pittsburgh,10096,Vacant Land,P,Hold for Study,Unknown,Treasurer Sale,2018-10-19,2019-04-22,40.438388521,-80.0475012907,42003281500,Crafton Heights,2,28,1-17,6,5,Northern,Emerald
1927645,989720,,,0 ELSINORE PL,City of Pittsburgh,914,Vacant Land,H,URA Transfer,Available for Sale,Treasurer Sale,2018-10-19,2019-04-22,40.4336732838,-79.9620254176,42003040900,South Oakland,3,4,2-10,4,3,Central,Schenley
1927646,989764,,,0 PARKWOOD RD,City of Pittsburgh,9160,Vacant Land,H,URA Transfer,Available for Sale,Treasurer Sale,2018-10-19,2019-04-22,40.4139933464,-79.9790249144,42003561700,Mt. Oliver,3,16,4-8,3,3,Southern,Schenley
1927647,989765,,,0 QUARRY ST,City of Pittsburgh,5671,Vacant Land,H,URA Transfer,Available for Sale,Treasurer Sale,2018-10-19,2019-04-22,40.4206819848,-79.983624919,42003170600,South Side Slopes,3,17,4-22,3,3,Southern,Schenley
1927648,989766,,,507 CLIMAX ST,City of Pittsburgh,1875,Vacant Land,R2-H,Public Sale,Available for Sale,Treasurer Sale,2018-10-19,2019-04-22,40.4201406697,-79.998476635,42003562400,Beltzhoover,3,18,4-21,3,5,Southern,Emerald
1927649,989767,,,849 FREELAND ST,City of Pittsburgh,3125,Vacant Land,R1D-H,Public Sale,Available for Sale,Treasurer Sale,2018-10-19,2019-04-22,40.4193962993,-79.9917895727,42003180300,Allentown,3,18,4-6,3,5,Southern,Emerald
1927650,985716,,,427 VANDALIA ST,City of Pittsburgh,2500,Vacant Land,R2-H,Public Sale,Sale Pending,Treasurer Sale,2018-04-20,2019-04-02,40.413764689,-79.9991875948,42003562400,Beltzhoover,3,18,4-21,3,5,Southern,Emerald
1927651,989769,,,808 DELMONT AVE,City of Pittsburgh,2500,Vacant Land,R2-H,URA Transfer,Available for Sale,Treasurer Sale,2018-10-19,2019-04-22,40.4154364194,-80.0041455578,42003562400,Beltzhoover,3,18,4-16,3,5,Southern,Emerald
1927652,989770,,,443 VANDALIA ST,City of Pittsburgh,2500,Building,R2-H,URA Transfer,Available for Sale,Treasurer Sale,2018-10-19,2019-04-22,40.4137691018,-79.9986430503,42003562400,Beltzhoover,3,18,4-21,3,5,Southern,Emerald
1927653,989841,,,103 JUCUNDA ST,City of Pittsburgh,3330,Building,R1D-H,Public Sale,Available for Sale,Treasurer Sale,2018-10-19,2019-04-22,40.4175434297,-79.9883792446,42003300100,Knoxville,3,30,4-6,3,5,Southern,Emerald
1927654,989842,,,138 KNOX AVE,City of Pittsburgh,2317,Vacant Land,R1D-H,Public Sale,Available for Sale,Treasurer Sale,2018-10-19,2019-04-22,40.4144624039,-79.9902567933,42003300100,Knoxville,3,30,4-7,3,5,Southern,Emerald
1927655,989774,,,0 CAGWIN ST,City of Pittsburgh,5304,Vacant Land,H,URA Transfer,Available for Sale,Treasurer Sale,2018-10-19,2019-04-22,40.408033794,-80.0287448475,42003192000,Beechview,4,19,4-28,6,5,Southern,Emerald
1927656,989838,,,0 ALPLAUS ST,City of Pittsburgh,9050,Vacant Land,P,URA Transfer,Available for Sale,Treasurer Sale,2018-10-19,2019-04-22,40.3992006008,-79.9815373592,42003290200,Carrick,4,29,4-12,3,3,Southern,Schenley
1927657,989839,,,0 NOBLES LN,City of Pittsburgh,2800,Vacant Land,P,URA Transfer,Available for Sale,Treasurer Sale,2018-10-19,2019-04-22,40.4015388991,-79.9976061254,42003290100,Carrick,4,29,4-23,3,3,Southern,Schenley
1927658,989836,,,0 E MEYERS ST,City of Pittsburgh,10000,Vacant Land,R1D-H,Hold for Study,Unknown,Treasurer Sale,2018-10-19,2019-04-22,40.401107324,-79.9814541324,42003290200,Carrick,4,29,4-12,3,3,Southern,Schenley
1927659,989837,,,0 E MEYERS ST,City of Pittsburgh,5000,Vacant Land,R1D-H,Hold for Study,Unknown,Treasurer Sale,2018-10-19,2019-04-22,40.4011313531,-79.981292527,42003290200,Carrick,4,29,4-12,3,3,Southern,Schenley
1927660,989840,,,0 CANDOR ST,City of Pittsburgh,6150,Vacant Land,P,Hold for Study,Unknown,Treasurer Sale,2018-10-19,2019-04-22,40.3962802819,-79.9942404078,42003290100,Carrick,4,29,4-23,3,3,Southern,Schenley
1927661,989843,,,0 EDGEBROOK AVE,City of Pittsburgh,9852,Vacant Land,H,Hold for Study,Unknown,Treasurer Sale,2018-10-19,2019-04-22,40.4008122806,-80.0038743959,42003320600,Brookline,4,32,4-25,6,5,Southern,Emerald
1927662,989844,,,0 EDGEBROOK AVE,City of Pittsburgh,8750,Vacant Land,H,Hold for Study,Unknown,Treasurer Sale,2018-10-19,2019-04-22,40.4007605849,-80.0040476431,42003320600,Brookline,4,32,4-25,6,5,Southern,Emerald
1927663,989845,,,0 EDGEBROOK AVE,City of Pittsburgh,13108,Vacant Land,H,Hold for Study,Unknown,Treasurer Sale,2018-10-19,2019-04-22,40.4006524326,-80.0044370408,42003320600,Brookline,4,32,4-25,6,5,Southern,Emerald
1927664,989846,,,14 ZIMMERMAN ST,City of Pittsburgh,2466,Vacant Land,R1D-L,Hold for Study,Unknown,Treasurer Sale,2018-10-19,2019-04-22,40.4001139977,-80.0029880208,42003320600,Brookline,4,32,4-25,6,5,Southern,Emerald
1927665,989847,,,0 ZIMMERMAN ST,City of Pittsburgh,5900,Vacant Land,R1D-L,Hold for Study,Unknown,Treasurer Sale,2018-10-19,2019-04-22,40.4003305734,-80.0031519639,42003320600,Brookline,4,32,4-25,6,5,Southern,Emerald
1927666,989754,,,0 LEBLANC ST,City of Pittsburgh,2400,Vacant Land,R1D-L,Hold for Study,Unknown,Treasurer Sale,2018-10-19,2019-04-22,40.425705096,-79.8998447605,42003141100,Swisshelm Park,5,14,2-19,4,3,Eastern,Frick
1927667,989755,,,0 LEBLANC ST,City of Pittsburgh,7480,Vacant Land,R1D-L,Hold for Study,Unknown,Treasurer Sale,2018-10-19,2019-04-22,40.4255869632,-79.9001578648,42003141100,Swisshelm Park,5,14,2-19,4,3,Eastern,Frick
1927668,989756,,,1000 WINDERMERE DR,City of Pittsburgh,28986,Vacant Land,R1D-L,Hold for Study,Unknown,Treasurer Sale,2018-10-19,2019-04-22,40.4255138598,-79.901409256,42003141100,Swisshelm Park,5,14,2-19,4,3,Eastern,Frick
1927669,989757,,,0 IVONDALE ST,City of Pittsburgh,4800,Vacant Land,H,URA Transfer,Available for Sale,Treasurer Sale,2018-10-19,2019-04-22,40.4266757568,-79.9469801157,42003151600,Greenfield,5,15,2-12,4,3,Eastern,Frick
1927670,989758,,,0 IVONDALE ST,City of Pittsburgh,2400,Vacant Land,H,URA Transfer,Available for Sale,Treasurer Sale,2018-10-19,2019-04-22,40.4266407263,-79.9471060004,42003151600,Greenfield,5,15,2-12,4,3,Eastern,Frick
1927671,989759,,,331 ANDOE ST,City of Pittsburgh,2370,Vacant Land,H,URA Transfer,Available for Sale,Treasurer Sale,2018-10-19,2019-04-22,40.4265136999,-79.9466610063,42003151600,Greenfield,5,15,2-12,4,3,Eastern,Frick
1927672,989760,,,330 ANDOE ST,City of Pittsburgh,7862,Vacant Land,H,URA Transfer,Available for Sale,Treasurer Sale,2018-10-19,2019-04-22,40.4262100517,-79.9466752525,42003151600,Greenfield,5,15,2-12,4,3,Eastern,Frick
1927673,989761,,,508 PRESCOTT ST,City of Pittsburgh,2000,Vacant Land,H,URA Transfer,Available for Sale,Treasurer Sale,2018-10-19,2019-04-22,40.4143888459,-79.9335324844,42003562300,Hazelwood,5,15,2-13,4,3,Eastern,Frick
1927674,989762,,,41 PRESCOTT ST,City of Pittsburgh,12000,Vacant Land,H,Hold for Study,Unknown,Treasurer Sale,2018-10-19,2019-04-22,40.4142140535,-79.933901753,42003562300,Hazelwood,5,15,2-13,4,3,Eastern,Frick
1927675,989763,,,43 PRESCOTT ST,City of Pittsburgh,6000,Vacant Land,H,Hold for Study,Unknown,Treasurer Sale,2018-10-19,2019-04-22,40.4140462944,-79.9340301943,42003562300,Hazelwood,5,15,2-13,4,3,Eastern,Frick
1927676,977847,,,63 WHEELING ST,City of Pittsburgh,3530,Vacant Land,P,Public Sale,Sale Pending,Treasurer Sale,2017-09-01,2019-04-18,40.3806977447,-79.9322169227,42003562900,Hays,5,31,4-20,4,3,Eastern,Frick
1927677,989719,,,2610 FORBES AVE,City of Pittsburgh,2640,Building,H,Hold for Study,Unknown,Treasurer Sale,2018-10-19,2019-04-22,40.4356420748,-79.9672463879,42003040900,South Oakland,6,4,2-10,4,3,Central,Schenley
1927678,989721,,,707 MORGAN ST,City of Pittsburgh,750,Vacant Land,RM-M,Public Sale,Available for Sale,Treasurer Sale,2018-10-19,2019-04-22,40.4514444617,-79.9693266285,42003050900,Bedford Dwellings,6,5,2-5,2,3,Central,Schenley
1927679,989722,,,709 MORGAN ST,City of Pittsburgh,830,Vacant Land,RM-M,Public Sale,Available for Sale,Treasurer Sale,2018-10-19,2019-04-22,40.4514859927,-79.9693550592,42003050900,Bedford Dwellings,6,5,2-5,2,3,Central,Schenley
1927680,989728,,,3440 MONROE ST,City of Pittsburgh,2277,Vacant Land,R2-L,Public Sale,Available for Sale,Treasurer Sale,2018-10-19,2019-04-22,40.4563192418,-79.961064793,42003050600,Upper Hill,6,5,2-24,2,3,Central,Schenley
1927681,989723,,,2509 UPTON ST,City of Pittsburgh,2240,Vacant Land,RM-M,URA Transfer,Available for Sale,Treasurer Sale,2018-10-19,2019-04-22,40.4492231389,-79.9718585986,42003050100,Middle Hill,6,5,2-5,2,3,Central,Schenley
1927682,989724,,,2517 UPTON ST,City of Pittsburgh,1060,Vacant Land,RM-M,URA Transfer,Available for Sale,Treasurer Sale,2018-10-19,2019-04-22,40.4492592792,-79.971561901,42003050100,Middle Hill,6,5,2-5,2,3,Central,Schenley
1927683,989725,,,2446 WEBSTER AVE,City of Pittsburgh,1598,Vacant Land,RM-M,URA Transfer,Available for Sale,Treasurer Sale,2018-10-19,2019-04-22,40.4493599434,-79.9725533371,42003050100,Middle Hill,6,5,2-5,2,3,Central,Schenley
1927684,989726,,,2454 BEDFORD AVE,City of Pittsburgh,2000,Vacant Land,RM-M,URA Transfer,Available for Sale,Treasurer Sale,2018-10-19,2019-04-22,40.4502063022,-79.9730796388,42003050100,Middle Hill,6,5,2-5,2,3,Central,Schenley
1927685,989727,,,500 JUNILLA ST,City of Pittsburgh,1035,Vacant Land,RM-M,URA Transfer,Available for Sale,Treasurer Sale,2018-10-19,2019-04-22,40.4464110742,-79.9705223736,42003050100,Middle Hill,6,5,2-5,2,3,Central,Schenley
1927686,989730,,,705 FINLAND ST,City of Pittsburgh,5000,Vacant Land,R2-L,CDC Property Reserve,Sale Pending,Treasurer Sale,2018-10-19,2019-04-22,40.4561644408,-79.9583454964,42003050600,Upper Hill,6,5,2-22,2,3,Central,Schenley
1927687,989731,,,3002 CAMP ST,City of Pittsburgh,791,Building,R2-L,CDC Property Reserve,Sale Pending,Treasurer Sale,2018-10-19,2019-04-22,40.4506007696,-79.9594362623,42003050600,Upper Hill,6,5,2-22,2,3,Central,Schenley
1927688,989793,,,0 OHERN ST,City of Pittsburgh,2700,Vacant Land,R1A-VH,URA Transfer,Available for Sale,Treasurer Sale,2018-10-19,2019-04-22,40.4594982787,-80.0139448825,42003250300,Central Northside,6,25,1-21,1,1,Northern,Riverview
1927689,989795,,,543 CHAUTAUQUA ST,City of Pittsburgh,2009,Vacant Land,H,URA Transfer,Available for Sale,Treasurer Sale,2018-10-19,2019-04-22,40.4643061169,-80.0163156829,42003261400,Perry South,6,25,1-12,1,1,Northern,Riverview
1927690,989796,,,545 CHAUTAUQUA ST,City of Pittsburgh,1951,Vacant Land,H,URA Transfer,Available for Sale,Treasurer Sale,2018-10-19,2019-04-22,40.4642829045,-80.0163734145,42003261400,Perry South,6,25,1-12,1,1,Northern,Riverview
1927691,989797,,,605 CHAUTAUQUA ST,City of Pittsburgh,7130,Vacant Land,H,URA Transfer,Available for Sale,Treasurer Sale,2018-10-19,2019-04-22,40.4641023082,-80.016671765,42003261400,Perry South,6,25,1-12,1,1,Northern,Riverview
1927692,989798,,,0 CHAUTAUQUA ST,City of Pittsburgh,2840,Vacant Land,H,URA Transfer,Available for Sale,Treasurer Sale,2018-10-19,2019-04-22,40.464654449,-80.0152973283,42003261400,Perry South,6,25,1-12,1,1,Northern,Riverview
1927693,989799,,,515 CHAUTAUQUA ST,City of Pittsburgh,4290,Vacant Land,H,URA Transfer,Available for Sale,Treasurer Sale,2018-10-19,2019-04-22,40.4646292965,-80.0153884817,42003261400,Perry South,6,25,1-12,1,1,Northern,Riverview
1927694,989800,,,519 CHAUTAUQUA ST,City of Pittsburgh,4320,Vacant Land,H,URA Transfer,Available for Sale,Treasurer Sale,2018-10-19,2019-04-22,40.4645785965,-80.0154708775,42003261400,Perry South,6,25,1-12,1,1,Northern,Riverview
1927695,989801,,,0 MELROSE AVE,City of Pittsburgh,1500,Vacant Land,H,URA Transfer,Available for Sale,Treasurer Sale,2018-10-19,2019-04-22,40.4644598573,-80.0154995361,42003261400,Perry South,6,25,1-12,1,1,Northern,Riverview
1927696,989822,,,2651 VETERAN ST,City of Pittsburgh,3740,Building,H,Public Sale,Available for Sale,Treasurer Sale,2018-10-19,2019-04-22,40.4722848651,-80.0095953392,42003261500,Perry South,6,26,1-23,1,1,Northern,Riverview
1927697,989803,,,0 CHESTER AVE,City of Pittsburgh,3494,Vacant Land,H,URA Transfer,Available for Sale,Treasurer Sale,2018-10-19,2019-04-22,40.4666424306,-80.0164417548,42003261400,Perry South,6,26,1-12,1,1,Northern,Riverview
1927698,989804,,,0 CHESTER AVE,City of Pittsburgh,8004,Vacant Land,H,URA Transfer,Available for Sale,Treasurer Sale,2018-10-19,2019-04-22,40.4663548065,-80.0171135004,42003261400,Perry South,6,26,1-12,1,1,Northern,Riverview
1927699,989805,,,0 CHESTER AVE,City of Pittsburgh,6015,Vacant Land,H,URA Transfer,Available for Sale,Treasurer Sale,2018-10-19,2019-04-22,40.4659579541,-80.0176739109,42003261400,Perry South,6,26,1-12,1,1,Northern,Riverview
1927700,989806,,,0 N CHARLES ST,City of Pittsburgh,2000,Vacant Land,R1D-H,URA Transfer,Available for Sale,Treasurer Sale,2018-10-19,2019-04-22,40.470069277,-80.0123911404,42003261400,Perry South,6,26,1-23,1,1,Northern,Riverview
1927701,989808,,,2945 N CHARLES ST,City of Pittsburgh,3000,Building,R1D-H,URA Transfer,Available for Sale,Treasurer Sale,2018-10-19,2019-04-22,40.4710550614,-80.00960269,42003261500,Perry South,6,26,1-23,1,1,Northern,Riverview
1927702,989809,,,2933 N CHARLES ST,City of Pittsburgh,3000,Vacant Land,R1D-H,URA Transfer,Available for Sale,Treasurer Sale,2018-10-19,2019-04-22,40.4709875485,-80.0099610916,42003261500,Perry South,6,26,1-23,1,1,Northern,Riverview
1927703,989810,,,12 LEGION WAY,City of Pittsburgh,1125,Vacant Land,RM-M,URA Transfer,Available for Sale,Treasurer Sale,2018-10-19,2019-04-22,40.4712488538,-80.0100474854,42003261500,Perry South,6,26,1-23,1,1,Northern,Riverview
1927704,989811,,,0 KENWOOD AVE,City of Pittsburgh,870,Vacant Land,H,URA Transfer,Available for Sale,Treasurer Sale,2018-10-19,2019-04-22,40.4684832367,-80.0131968773,42003261400,Perry South,6,26,1-12,1,1,Northern,Riverview
1927705,989812,,,0 KENWOOD AVE,City of Pittsburgh,864,Vacant Land,H,URA Transfer,Available for Sale,Treasurer Sale,2018-10-19,2019-04-22,40.4684980153,-80.0131288788,42003261400,Perry South,6,26,1-12,1,1,Northern,Riverview
1927706,989813,,,0 KENWOOD AVE,City of Pittsburgh,1728,Vacant Land,H,URA Transfer,Available for Sale,Treasurer Sale,2018-10-19,2019-04-22,40.4685143212,-80.0130369318,42003261400,Perry South,6,26,1-12,1,1,Northern,Riverview
1927707,989814,,,25 KENWOOD AVE,City of Pittsburgh,2760,Vacant Land,H,URA Transfer,Available for Sale,Treasurer Sale,2018-10-19,2019-04-22,40.4695316691,-80.0095708316,42003261400,Perry South,6,26,1-23,1,1,Northern,Riverview
1927708,989815,,,14 KENWOOD AVE,City of Pittsburgh,2760,Vacant Land,H,URA Transfer,Available for Sale,Treasurer Sale,2018-10-19,2019-04-22,40.4696321662,-80.0090419703,42003261400,Perry South,6,26,1-23,1,1,Northern,Riverview
1927709,989816,,,12 KENWOOD AVE,City of Pittsburgh,3198,Vacant Land,H,URA Transfer,Available for Sale,Treasurer Sale,2018-10-19,2019-04-22,40.4696612789,-80.0089477369,42003261400,Perry South,6,26,1-23,1,1,Northern,Riverview
1927710,989818,,,0 CHESTER AVE,City of Pittsburgh,2925,Vacant Land,H,URA Transfer,Available for Sale,Treasurer Sale,2018-10-19,2019-04-22,40.4669700042,-80.0156648666,42003261400,Perry South,6,26,1-12,1,1,Northern,Riverview
1927711,989819,,,500 HAWKINS AVE,City of Pittsburgh,1920,Vacant Land,H,URA Transfer,Available for Sale,Treasurer Sale,2018-10-19,2019-04-22,40.4724589355,-80.0167664302,42003271500,Marshall-Shadeland,6,26,1-12,1,1,Northern,Riverview
1927712,989734,,,6640 BUTLER ST,City of Pittsburgh,2780,Vacant Land,H,URA Transfer,Available for Sale,Treasurer Sale,2018-10-19,2019-04-22,40.489259094,-79.9287501434,42003101400,Morningside,7,10,3-7,5,2,Central,Highland
1927713,989735,,,6840 BUTLER ST,City of Pittsburgh,4000,Vacant Land,H,URA Transfer,Available for Sale,Treasurer Sale,2018-10-19,2019-04-22,40.4889336581,-79.9258415306,42003101400,Morningside,7,10,3-7,5,2,Central,Highland
1927714,989736,,,6836 BUTLER ST,City of Pittsburgh,4000,Vacant Land,H,URA Transfer,Available for Sale,Treasurer Sale,2018-10-19,2019-04-22,40.4889684195,-79.9259954445,42003101400,Morningside,7,10,3-7,5,2,Central,Highland
1927715,989737,,,6828 BUTLER ST,City of Pittsburgh,4000,Vacant Land,H,URA Transfer,Available for Sale,Treasurer Sale,2018-10-19,2019-04-22,40.4890310895,-79.9262618894,42003101400,Morningside,7,10,3-7,5,2,Central,Highland
1927716,989732,,,0 ENGLESIDE AVE,City of Pittsburgh,3876,Vacant Land,R1D-H,URA Transfer,Available for Sale,Treasurer Sale,2018-10-19,2019-04-22,40.4699706924,-79.938589431,42003101600,Garfield,9,10,3-4,5,2,Central,Highland
1927717,989738,,,7225 SOMERSET ST,City of Pittsburgh,3431,Building,R1D-L,Public Sale,Available for Sale,Treasurer Sale,2018-10-19,2019-04-22,40.4677862549,-79.8931862437,42003561900,Lincoln-Lemington-Belmar,9,12,3-18,5,2,Eastern,Highland
1927718,989739,,,7259 SOMERSET ST,City of Pittsburgh,2500,Vacant Land,R1D-L,Public Sale,Available for Sale,Treasurer Sale,2018-10-19,2019-04-22,40.4679137202,-79.8918995502,42003561900,Lincoln-Lemington-Belmar,9,12,3-18,5,2,Eastern,Highland
1927719,989740,,,1238 GROTTO ST,City of Pittsburgh,2100,Vacant Land,P,URA Transfer,Available for Sale,Treasurer Sale,2018-10-19,2019-04-22,40.4652114302,-79.8963745816,42003561900,Lincoln-Lemington-Belmar,9,12,3-18,5,2,Eastern,Highland
1927720,989741,,,7180 LEMINGTON AVE,City of Pittsburgh,3250,Vacant Land,R1D-L,URA Transfer,Available for Sale,Treasurer Sale,2018-10-19,2019-04-22,40.4667581153,-79.8939337644,42003561900,Lincoln-Lemington-Belmar,9,12,3-18,5,2,Eastern,Highland
1927721,989742,,,7176 LEMINGTON AVE,City of Pittsburgh,1674,Vacant Land,R1D-L,URA Transfer,Available for Sale,Treasurer Sale,2018-10-19,2019-04-22,40.4667800511,-79.8941593325,42003561900,Lincoln-Lemington-Belmar,9,12,3-18,5,2,Eastern,Highland
1927722,989743,,,0 LEMINGTON AVE,City of Pittsburgh,1175,Vacant Land,R1D-L,URA Transfer,Available for Sale,Treasurer Sale,2018-10-19,2019-04-22,40.4667948421,-79.8942704654,42003561900,Lincoln-Lemington-Belmar,9,12,3-18,5,2,Eastern,Highland
1927723,989744,,,0 LEMINGTON AVE,City of Pittsburgh,1862,Vacant Land,RM-M,URA Transfer,Available for Sale,Treasurer Sale,2018-10-19,2019-04-22,40.4668069932,-79.8943687369,42003561900,Lincoln-Lemington-Belmar,9,12,3-18,5,2,Eastern,Highland
1927724,989745,,,7109 RACE ST,City of Pittsburgh,2325,Building,R2-L,URA Transfer,Available for Sale,Treasurer Sale,2018-10-19,2019-04-22,40.4594205042,-79.8974184873,42003130200,Homewood North,9,13,3-17,5,2,Eastern,Highland
1927725,989746,,,7103 IDLEWILD ST,City of Pittsburgh,1013,Vacant Land,R2-L,URA Transfer,Available for Sale,Treasurer Sale,2018-10-19,2019-04-22,40.4587834408,-79.8979675066,42003130200,Homewood North,9,13,3-17,5,2,Eastern,Highland
1927726,989747,,,7103 IDLEWILD ST,City of Pittsburgh,1013,Vacant Land,R2-L,URA Transfer,Available for Sale,Treasurer Sale,2018-10-19,2019-04-22,40.4587719515,-79.8979210073,42003130200,Homewood North,9,13,3-17,5,2,Eastern,Highland
1927727,989748,,,7105 IDLEWILD ST,City of Pittsburgh,1189,Vacant Land,R2-L,URA Transfer,Available for Sale,Treasurer Sale,2018-10-19,2019-04-22,40.4587637299,-79.897868188,42003130200,Homewood North,9,13,3-17,5,2,Eastern,Highland
1927728,989749,,,0 IDLEWILD ST,City of Pittsburgh,2325,Vacant Land,R2-L,URA Transfer,Available for Sale,Treasurer Sale,2018-10-19,2019-04-22,40.4587438673,-79.8976815585,42003130200,Homewood North,9,13,3-17,5,2,Eastern,Highland
1927729,989750,,,0 IDLEWILD ST,City of Pittsburgh,4650,Vacant Land,R2-L,URA Transfer,Available for Sale,Treasurer Sale,2018-10-19,2019-04-22,40.4585994696,-79.8970349277,42003130200,Homewood North,9,13,3-17,5,2,Eastern,Highland
1927730,989751,,,7229 IDLEWILD ST,City of Pittsburgh,2906,Building,R2-L,URA Transfer,Available for Sale,Treasurer Sale,2018-10-19,2019-04-22,40.4580399628,-79.8945702213,42003130200,Homewood North,9,13,3-17,5,2,Eastern,Highland
1927731,989752,,,7300 IDLEWILD ST,City of Pittsburgh,2600,Building,R2-L,URA Transfer,Available for Sale,Treasurer Sale,2018-10-19,2019-04-22,40.4574387119,-79.8937919353,42003130200,Homewood North,9,13,3-17,5,2,Eastern,Highland
1927732,989753,,,7302 IDLEWILD ST,City of Pittsburgh,2600,Building,R2-L,URA Transfer,Available for Sale,Treasurer Sale,2018-10-19,2019-04-22,40.4574222467,-79.8937068034,42003130200,Homewood North,9,13,3-17,5,2,Eastern,Highland
1927733,184488,,,1309  PAULSON,City of Pittsburgh,1900,Vacant Land,RM-M,Public Sale,Sale Pending,Unknown,2013-04-26,2018-07-11,40.46922997112207,-79.900912361765,42003120300,Lincoln-Lemington-Belmar,9,12,3-15,5,2,Eastern,Highland
1927734,184339,,,7312  MONTICELLO ST,City of Pittsburgh,2325,Vacant Land,R2-L,Public Sale,Sale Pending,Treasurer Sale,2015-08-14,2018-07-25,40.458710419965,-79.89283436115977,42003130200,Homewood North,9,13,3-17,5,2,Eastern,Highland
1927735,977827,,,0 MONTVIEW ST,City of Pittsburgh,2500,Vacant Land,P,Public Sale,Sale Pending,Treasurer Sale,2017-09-01,2018-07-25,40.4913335192,-80.0257859597,42003260200,Perry North,1,26,1-15,1,1,Northern,Riverview
1927736,977828,,,0 MONTVIEW ST,City of Pittsburgh,2500,Vacant Land,P,Public Sale,Sale Pending,Treasurer Sale,2017-09-01,2018-07-25,40.4913010198,-80.0258669537,42003260200,Perry North,1,26,1-15,1,1,Northern,Riverview
1927737,1083180,,,6826 LYRIC ST,City of Pittsburgh,2400,Building,R2-L,Public Sale,Available for Sale,Treasurer Sale,2021-10-15,2022-03-22,40.4628698739,-79.9026856446,42003120700,Homewood West,9,12,3-18,5,2,Eastern,Eastern
1927738,1083186,,,0 INWOOD ST,City of Pittsburgh,4080,Vacant Land,R2-L,Public Sale,Available for Sale,Treasurer Sale,2021-10-15,2022-03-22,40.4604537364,-79.9048376122,42003120700,Homewood West,9,12,3-17,5,2,Eastern,Eastern
1927739,1083181,,,0 UPLAND ST,City of Pittsburgh,2000,Vacant Land,R2-L,URA Transfer,Available for Sale,Treasurer Sale,2021-10-15,2022-03-22,40.4634611303,-79.8996866852,42003120700,Homewood West,9,12,3-18,5,2,Eastern,Eastern
1927740,1083182,,,0 UPLAND ST,City of Pittsburgh,1500,Vacant Land,R2-L,URA Transfer,Available for Sale,Treasurer Sale,2021-10-15,2022-03-22,40.4635586773,-79.9004354355,42003120700,Homewood West,9,12,3-18,5,2,Eastern,Eastern
1927741,1083183,,,0 UPLAND ST,City of Pittsburgh,1500,Vacant Land,R2-L,URA Transfer,Available for Sale,Treasurer Sale,2021-10-15,2022-03-22,40.4636890615,-79.9003877125,42003120700,Homewood West,9,12,3-18,5,2,Eastern,Eastern
1927742,1083184,,,0 LINCOLN AVE,City of Pittsburgh,2300,Vacant Land,LNC,URA Transfer,Available for Sale,Treasurer Sale,2021-10-15,2022-03-22,40.4639679082,-79.9007814951,42003120700,Homewood West,9,12,3-18,5,2,Eastern,Eastern
1927743,1083185,,,0 LINCOLN AVE,City of Pittsburgh,1438,Vacant Land,LNC,URA Transfer,Available for Sale,Treasurer Sale,2021-10-15,2022-03-22,40.4639866914,-79.9006988148,42003120700,Homewood West,9,12,3-18,5,2,Eastern,Eastern
1927744,1083189,,,7133 MOUNT VERNON ST,City of Pittsburgh,2325,Vacant Land,R2-L,Public Sale,Available for Sale,Treasurer Sale,2021-10-15,2022-03-22,40.4619220166,-79.8959782662,42003130100,Homewood North,9,13,3-18,5,2,Eastern,Eastern
1927745,1083196,,,7739 MONTICELLO ST,City of Pittsburgh,3900,Vacant Land,R2-L,Public Sale,Available for Sale,Treasurer Sale,2021-10-15,2022-03-22,40.4585032195,-79.8869545328,42003130100,Homewood North,9,13,3-17,5,2,Eastern,Eastern
1927746,1083201,,,2053 FRANKELLA AVE,City of Pittsburgh,4080,Building,R1D-L,Public Sale,Available for Sale,Treasurer Sale,2021-10-15,2022-03-22,40.4521245167,-79.8708275614,42003130600,East Hills,9,13,3-19,5,2,Eastern,Eastern
1927747,1083190,,,7403 MOUNT VERNON ST,City of Pittsburgh,3250,Vacant Land,RM-M,URA Transfer,Available for Sale,Treasurer Sale,2021-10-15,2022-03-22,40.4603109749,-79.8902578305,42003130100,Homewood North,9,13,3-17,5,2,Eastern,Eastern
1927748,1083191,,,7405 MOUNT VERNON ST,City of Pittsburgh,3250,Vacant Land,RM-M,URA Transfer,Available for Sale,Treasurer Sale,2021-10-15,2022-03-22,40.4602952636,-79.8901663358,42003130100,Homewood North,9,13,3-17,5,2,Eastern,Eastern
1927749,1083192,,,0 UPLAND ST,City of Pittsburgh,3250,Vacant Land,RM-M,URA Transfer,Available for Sale,Treasurer Sale,2021-10-15,2022-03-22,40.4606750604,-79.8902103371,42003130100,Homewood North,9,13,3-18,5,2,Eastern,Eastern
1927750,1083193,,,7525 UPLAND ST,City of Pittsburgh,2553,Vacant Land,RM-M,URA Transfer,Available for Sale,Treasurer Sale,2021-10-15,2022-03-22,40.4608856818,-79.8890754119,42003130100,Homewood North,9,13,3-18,5,2,Eastern,Eastern
1927751,1083194,,,7533 UPLAND ST,City of Pittsburgh,2550,Vacant Land,RM-M,URA Transfer,Available for Sale,Treasurer Sale,2021-10-15,2022-03-22,40.460827426,-79.8888116709,42003130100,Homewood North,9,13,3-18,5,2,Eastern,Eastern
1927752,1083197,,,7453 HERMITAGE ST,City of Pittsburgh,2728,Vacant Land,RM-M,URA Transfer,Available for Sale,Treasurer Sale,2021-10-15,2022-03-22,40.4589492243,-79.8887725033,42003130100,Homewood North,9,13,3-17,5,2,Eastern,Eastern
1927753,1083198,,,7449 HERMITAGE ST,City of Pittsburgh,2926,Building,RM-M,URA Transfer,Available for Sale,Treasurer Sale,2021-10-15,2022-03-22,40.4589893756,-79.8889524676,42003130100,Homewood North,9,13,3-17,5,2,Eastern,Eastern
1927754,1083199,,,7447 HERMITAGE ST,City of Pittsburgh,2750,Vacant Land,RM-M,URA Transfer,Available for Sale,Treasurer Sale,2021-10-15,2022-03-22,40.4590125467,-79.8890441213,42003130100,Homewood North,9,13,3-17,5,2,Eastern,Eastern
1927755,1083200,,,7439 HERMITAGE ST,City of Pittsburgh,2978,Vacant Land,RM-M,URA Transfer,Available for Sale,Treasurer Sale,2021-10-15,2022-03-22,40.4591023225,-79.8893788321,42003130100,Homewood North,9,13,3-17,5,2,Eastern,Eastern
1927756,1083202,,,0 FLOWERS AVE,City of Pittsburgh,2129,Vacant Land,R1D-H,URA Transfer,Available for Sale,Treasurer Sale,2021-10-15,2022-03-22,40.4121722748,-79.9377136008,42003562300,Hazelwood,5,15,2-13,4,3,Eastern,Eastern
1927757,1083203,,,0 KILBOURNE ST,City of Pittsburgh,1476,Vacant Land,R1D-H,URA Transfer,Available for Sale,Treasurer Sale,2021-10-15,2022-03-22,40.4128121296,-79.9357960638,42003562300,Hazelwood,5,15,2-13,4,3,Eastern,Eastern
1927758,1083204,,,0 FLOWERS AVE,City of Pittsburgh,2400,Vacant Land,R1D-H,URA Transfer,Available for Sale,Treasurer Sale,2021-10-15,2022-03-22,40.4127350784,-79.9359360724,42003562300,Hazelwood,5,15,2-13,4,3,Eastern,Eastern
1927759,1083205,,,0 FLOWERS AVE,City of Pittsburgh,2400,Vacant Land,R1D-H,URA Transfer,Available for Sale,Treasurer Sale,2021-10-15,2022-03-22,40.4126993368,-79.9360104627,42003562300,Hazelwood,5,15,2-13,4,3,Eastern,Eastern
1927760,1083206,,,0 KILBOURNE ST,City of Pittsburgh,4020,Vacant Land,R1D-H,URA Transfer,Available for Sale,Treasurer Sale,2021-10-15,2022-03-22,40.4126732391,-79.936092648,42003562300,Hazelwood,5,15,2-13,4,3,Eastern,Eastern
1927761,1083207,,,0 KILBOURNE ST,City of Pittsburgh,1872,Vacant Land,R1D-H,URA Transfer,Available for Sale,Treasurer Sale,2021-10-15,2022-03-22,40.412611589,-79.9362404031,42003562300,Hazelwood,5,15,2-13,4,3,Eastern,Eastern
1927762,1083208,,,0 KILBOURNE ST,City of Pittsburgh,1512,Vacant Land,R1D-H,URA Transfer,Available for Sale,Treasurer Sale,2021-10-15,2022-03-22,40.4125493949,-79.9356922456,42003562300,Hazelwood,5,15,2-13,4,3,Eastern,Eastern
1927763,1083209,,,0 KILBOURNE ST,City of Pittsburgh,1530,Vacant Land,R1D-H,URA Transfer,Available for Sale,Treasurer Sale,2021-10-15,2022-03-22,40.4125223848,-79.9357445822,42003562300,Hazelwood,5,15,2-13,4,3,Eastern,Eastern
1927764,1083210,,,0 KILBOURNE ST,City of Pittsburgh,1556,Vacant Land,R1D-H,URA Transfer,Available for Sale,Treasurer Sale,2021-10-15,2022-03-22,40.4124997273,-79.9358022703,42003562300,Hazelwood,5,15,2-13,4,3,Eastern,Eastern
1927765,1083211,,,0 GIDDINGS ST,City of Pittsburgh,1434,Vacant Land,R1D-H,URA Transfer,Available for Sale,Treasurer Sale,2021-10-15,2022-03-22,40.412327934,-79.9368895177,42003562300,Hazelwood,5,15,2-13,4,3,Eastern,Eastern
1927766,1083212,,,0 NANSEN ST,City of Pittsburgh,2355,Vacant Land,R1D-H,URA Transfer,Available for Sale,Treasurer Sale,2021-10-15,2022-03-22,40.4121732982,-79.9368066272,42003562300,Hazelwood,5,15,2-13,4,3,Eastern,Eastern
1927767,1083213,,,0 FLOWERS AVE,City of Pittsburgh,1711,Vacant Land,R1D-H,URA Transfer,Available for Sale,Treasurer Sale,2021-10-15,2022-03-22,40.4121050592,-79.9366777662,42003562300,Hazelwood,5,15,2-13,4,3,Eastern,Eastern
1927768,1083214,,,0 FLOWERS AVE,City of Pittsburgh,1600,Vacant Land,R1D-H,URA Transfer,Available for Sale,Treasurer Sale,2021-10-15,2022-03-22,40.4121367605,-79.9368910579,42003562300,Hazelwood,5,15,2-13,4,3,Eastern,Eastern
1927769,1083215,,,0 NANSEN ST,City of Pittsburgh,2783,Vacant Land,R1D-H,URA Transfer,Available for Sale,Treasurer Sale,2021-10-15,2022-03-22,40.411748191,-79.9367738014,42003562300,Hazelwood,5,15,2-13,4,3,Eastern,Eastern
1927770,1083223,,,34 MILLBRIDGE ST,City of Pittsburgh,2500,Vacant Land,R1D-H,Public Sale,Available for Sale,Treasurer Sale,2021-10-15,2022-03-22,40.4231772887,-79.9960788384,42003180300,Allentown,3,18,4-5,3,4,Southern,Western
1927771,1083225,,,941 LOYAL WAY,City of Pittsburgh,3125,Building,R1D-H,Public Sale,Available for Sale,Treasurer Sale,2021-10-15,2022-03-22,40.4198374895,-79.9891058477,42003180300,Allentown,3,18,4-6,3,4,Southern,Western
1927772,1083224,,,0 E WARRINGTON AVE,City of Pittsburgh,3521,Vacant Land,LNC,URA Transfer,Available for Sale,Treasurer Sale,2021-10-15,2022-03-22,40.4214973656,-79.9960946115,42003180300,Allentown,3,18,4-21,3,4,Southern,Western
1927773,171459,,,622 GRACE ST,City of Pittsburgh,2500,Vacant Land,P,Hold for Study,Hold for Study,Treasurer Sale,1985-10-07,2022-03-24,40.4265436011,-80.0160133563,42003191400,Mount Washington,2,19,4-27,3,5,Southern,Western
1927774,1083231,,,195 STEUBEN ST,City of Pittsburgh,4800,Building,LNC,Public Sale,Available for Sale,Treasurer Sale,2021-10-15,2022-03-22,40.4412651935,-80.0357811824,42003562600,West End,2,20,1-17,6,5,Northern,Western
1927775,173091,,,1024 CRUCIBLE ST,City of Pittsburgh,1805,Vacant Land,R2-H,Public Sale,Sale Pending,Treasurer Sale,2002-07-11,2022-03-23,40.4440077657,-80.0424297451,42003562600,Elliott,2,20,1-17,6,5,Northern,Western
1927776,173092,,,1022 CRUCIBLE ST,City of Pittsburgh,1805,Vacant Land,R2-H,Public Sale,Sale Pending,Treasurer Sale,2006-09-22,2022-03-23,40.4439777293,-80.0423744194,42003562600,Elliott,2,20,1-17,6,5,Northern,Western
1927777,1083233,,,3052 GLEN MAWR ST,City of Pittsburgh,2500,Building,R1D-H,Public Sale,Available for Sale,Treasurer Sale,2021-10-15,2022-03-22,40.4580339172,-80.053654552,42003562500,Sheraden,2,20,1-16,6,5,Northern,Western
1927778,1083234,,,330 MINTON ST,City of Pittsburgh,1875,Vacant Land,R1D-H,Public Sale,Available for Sale,Treasurer Sale,2021-10-15,2022-03-22,40.45788171,-80.0508494614,42003562500,Sheraden,2,20,1-16,6,5,Northern,Western
1927779,1083241,,,1322 JEFFERS ST,City of Pittsburgh,5282,Vacant Land,R1D-H,Public Sale,Available for Sale,Treasurer Sale,2021-10-15,2022-03-22,40.4532853858,-80.0657173556,42003202200,Sheraden,2,20,1-16,6,5,Northern,Western
1927780,1083242,,,0 ZEPHYR AVE,City of Pittsburgh,5540,Vacant Land,R1D-H,Public Sale,Available for Sale,Treasurer Sale,2021-10-15,2022-03-22,40.4533867002,-80.0510518615,42003562500,Sheraden,2,20,1-16,6,5,Northern,Western
1927781,1083243,,,0 ZEPHYR AVE,City of Pittsburgh,5662,Vacant Land,R1D-H,Public Sale,Available for Sale,Treasurer Sale,2021-10-15,2022-03-22,40.4537729361,-80.0508071127,42003562500,Sheraden,2,20,1-16,6,5,Northern,Western
1927782,1083244,,,3674 HARLOW PL,City of Pittsburgh,8100,Vacant Land,R1D-L,Public Sale,Available for Sale,Treasurer Sale,2021-10-15,2022-03-22,40.4599718324,-80.0720226446,42003563000,Chartiers City,2,20,1-16,6,5,Northern,Western
1927783,1083229,,,859 STEUBEN ST,City of Pittsburgh,5150,Vacant Land,R1D-L,URA Transfer,Available for Sale,Treasurer Sale,2021-10-15,2022-03-22,40.44249854,-80.0424401191,42003562600,Elliott,2,20,1-17,6,5,Northern,Western
1927784,1083230,,,901 NEIDEL ST,City of Pittsburgh,6000,Building,R1D-L,URA Transfer,Available for Sale,Treasurer Sale,2021-10-15,2022-03-22,40.441925642,-80.0424634582,42003562600,Elliott,2,20,1-17,6,5,Northern,Western
1927785,1083232,,,1021 RUE GRANDE VUE ST,City of Pittsburgh,2400,Building,R1D-H,URA Transfer,Available for Sale,Treasurer Sale,2021-10-15,2022-03-22,40.4477893865,-80.036164543,42003562600,Elliott,2,20,1-17,6,5,Northern,Western
1927786,1083235,,,3046 ZEPHYR AVE,City of Pittsburgh,5000,Building,R1D-H,URA Transfer,Available for Sale,Treasurer Sale,2021-10-15,2022-03-22,40.4574920662,-80.0542722056,42003562500,Sheraden,2,20,1-16,6,5,Northern,Western
1927787,1083236,,,3047 ZEPHYR AVE,City of Pittsburgh,2916,Building,R1D-H,URA Transfer,Available for Sale,Treasurer Sale,2021-10-15,2022-03-22,40.4573338296,-80.0547318493,42003562500,Sheraden,2,20,1-16,6,5,Northern,Western
1927788,1083238,,,3030 BERGMAN ST,City of Pittsburgh,4500,Vacant Land,R1D-H,URA Transfer,Available for Sale,Treasurer Sale,2021-10-15,2022-03-22,40.45619986,-80.0541477273,42003562500,Sheraden,2,20,1-16,6,5,Northern,Western
1927789,1083240,,,3014 ZEPHYR AVE,City of Pittsburgh,3000,Building,R1D-H,URA Transfer,Available for Sale,Treasurer Sale,2021-10-15,2022-03-22,40.4568076279,-80.0536283535,42003562500,Sheraden,2,20,1-16,6,5,Northern,Western
1927790,1083273,,,3408 CLEARFIELD ST,City of Pittsburgh,3300,Building,R2-L,Public Sale,Available for Sale,Treasurer Sale,2021-10-15,2022-03-22,40.4521702153,-80.0714913235,42003563000,Windgap,2,28,1-16,6,5,Northern,Western
1927791,1083245,,,0 SEDGWICK ST,City of Pittsburgh,593,Vacant Land,R1A-H,Public Sale,Available for Sale,Treasurer Sale,2021-10-15,2022-03-22,40.4560796334,-80.0227642482,42003210700,Manchester,6,21,1-8,1,1,Northern,Northern
1927792,1083246,,,967 KIRKBRIDE ST,City of Pittsburgh,579,Vacant Land,R1A-M,Public Sale,Available for Sale,Treasurer Sale,2021-10-15,2022-03-22,40.4594726599,-80.0214185353,42003250700,California-Kirkbride,6,25,1-9,1,1,Northern,Northern
1927793,1083247,,,1915 FEDERAL ST EXT,City of Pittsburgh,5640,Vacant Land,H,Public Sale,Available for Sale,Treasurer Sale,2021-10-15,2022-03-22,40.4624177263,-80.0093383136,42003261400,Perry South,6,25,1-10,1,1,Northern,Northern
1927794,1083248,,,0 FEDERAL ST EXT,City of Pittsburgh,7680,Vacant Land,H,Public Sale,Available for Sale,Treasurer Sale,2021-10-15,2022-03-22,40.4621459315,-80.0092220912,42003261400,Perry South,6,25,1-10,1,1,Northern,Northern
1927795,1083250,,,1917 FEDERAL ST EXT,City of Pittsburgh,4048,Vacant Land,H,Public Sale,Available for Sale,Treasurer Sale,2021-10-15,2022-03-22,40.4624898822,-80.0093571163,42003261400,Perry South,6,25,1-10,1,1,Northern,Northern
1927796,1083251,,,2023 MOUNTFORD AVE,City of Pittsburgh,2802,Vacant Land,R1D-L,Public Sale,Available for Sale,Treasurer Sale,2021-10-15,2022-03-22,40.4643618535,-80.0078372383,42003250900,Fineview,6,25,1-10,1,1,Northern,Northern
1927797,1083252,,,213 LURAY ST,City of Pittsburgh,6151,Vacant Land,R1D-H,Public Sale,Available for Sale,Treasurer Sale,2021-10-15,2022-03-22,40.4715624867,-80.0135413369,42003261500,Perry South,6,26,1-23,1,1,Northern,Northern
1927798,1083253,,,0 W MCINTYRE AVE,City of Pittsburgh,3031,Vacant Land,R1D-H,Public Sale,Available for Sale,Treasurer Sale,2021-10-15,2022-03-22,40.4682912367,-80.0122018114,42003261400,Perry South,6,26,1-12,1,1,Northern,Northern
1927799,1083265,,,212 CHESTER AVE,City of Pittsburgh,1897,Building,R1D-H,Public Sale,Available for Sale,Treasurer Sale,2021-10-15,2022-03-22,40.4673045537,-80.0120100106,42003261400,Perry South,6,26,1-12,1,1,Northern,Northern
1927800,1083268,,,0 SHERLOCK ST,City of Pittsburgh,4600,Vacant Land,H,Public Sale,Available for Sale,Treasurer Sale,2021-10-15,2022-03-22,40.4738643197,-80.0087341524,42003261500,Perry South,1,26,1-23,1,1,Northern,Northern
1927801,1083269,,,0 SHERLOCK ST,City of Pittsburgh,2300,Vacant Land,H,Public Sale,Available for Sale,Treasurer Sale,2021-10-15,2022-03-22,40.4739745731,-80.0087378175,42003261500,Perry South,1,26,1-23,1,1,Northern,Northern
1927802,1083271,,,2729 PERRYSVILLE AVE,City of Pittsburgh,5790,Vacant Land,H,Public Sale,Available for Sale,Treasurer Sale,2021-10-15,2022-03-22,40.4733593193,-80.0108201395,42003261500,Perry South,6,26,1-23,1,1,Northern,Northern
1927803,1083254,,,0 MAPLE AVE,City of Pittsburgh,2750,Vacant Land,R1D-H,URA Transfer,Available for Sale,Treasurer Sale,2021-10-15,2022-03-22,40.4675876626,-80.0083586343,42003261400,Perry South,6,26,1-22,1,1,Northern,Northern
1927804,1083255,,,0 MAPLE AVE,City of Pittsburgh,6615,Vacant Land,R1D-H,URA Transfer,Available for Sale,Treasurer Sale,2021-10-15,2022-03-22,40.4679283076,-80.0085342089,42003261400,Perry South,6,26,1-22,1,1,Northern,Northern
1927805,1083256,,,0 MAPLE AVE,City of Pittsburgh,3500,Vacant Land,R1D-H,URA Transfer,Available for Sale,Treasurer Sale,2021-10-15,2022-03-22,40.4681413566,-80.0083063803,42003261400,Perry South,6,26,1-22,1,1,Northern,Northern
1927806,1083257,,,0 MAPLE AVE,City of Pittsburgh,3500,Vacant Land,R1D-H,URA Transfer,Available for Sale,Treasurer Sale,2021-10-15,2022-03-22,40.4682292809,-80.0082485723,42003261400,Perry South,6,26,1-22,1,1,Northern,Northern
1927807,1083258,,,0 MAPLE AVE,City of Pittsburgh,1750,Vacant Land,R1D-H,URA Transfer,Available for Sale,Treasurer Sale,2021-10-15,2022-03-22,40.4682836696,-80.0082000131,42003261400,Perry South,6,26,1-22,1,1,Northern,Northern
1927808,1083259,,,0 MAPLE AVE,City of Pittsburgh,1750,Vacant Land,R1D-H,URA Transfer,Available for Sale,Treasurer Sale,2021-10-15,2022-03-22,40.4683287456,-80.0081722633,42003261400,Perry South,6,26,1-22,1,1,Northern,Northern
1927809,1083260,,,0 MAPLE AVE,City of Pittsburgh,3500,Vacant Land,R1D-H,URA Transfer,Available for Sale,Treasurer Sale,2021-10-15,2022-03-22,40.4683959069,-80.00812462,42003261400,Perry South,6,26,1-22,1,1,Northern,Northern
1927810,1083261,,,0 MAPLE AVE,City of Pittsburgh,3500,Vacant Land,R1D-H,URA Transfer,Available for Sale,Treasurer Sale,2021-10-15,2022-03-22,40.4684777808,-80.0080638641,42003261400,Perry South,6,26,1-22,1,1,Northern,Northern
1927811,1083262,,,0 OSGOOD ST,City of Pittsburgh,3278,Vacant Land,R1D-H,URA Transfer,Available for Sale,Treasurer Sale,2021-10-15,2022-03-22,40.4682639763,-80.0078165012,42003261400,Perry South,6,26,1-22,1,1,Northern,Northern
1927812,1083263,,,0 E BURGESS ST,City of Pittsburgh,8440,Vacant Land,R1D-H,URA Transfer,Available for Sale,Treasurer Sale,2021-10-15,2022-03-22,40.4680148266,-80.0080729199,42003261400,Perry South,6,26,1-22,1,1,Northern,Northern
1927813,1083264,,,2417 OSGOOD ST,City of Pittsburgh,3278,Building,R1D-H,URA Transfer,Available for Sale,Treasurer Sale,2021-10-15,2022-03-22,40.46859743,-80.0075823839,42003261400,Perry South,6,26,1-22,1,1,Northern,Northern
1927814,1083266,,,0 MAPLE AVE,City of Pittsburgh,4588,Vacant Land,R1D-H,URA Transfer,Available for Sale,Treasurer Sale,2021-10-15,2022-03-22,40.4667685953,-80.0080412381,42003261400,Perry South,6,26,1-22,1,1,Northern,Northern
1927815,1083267,,,0 MAPLE AVE,City of Pittsburgh,4600,Vacant Land,R1D-H,URA Transfer,Available for Sale,Treasurer Sale,2021-10-15,2022-03-22,40.4670484297,-80.008140442,42003261400,Perry South,6,26,1-22,1,1,Northern,Northern
1927816,1083272,,,1516 WOODLAND AVE,City of Pittsburgh,1643,Building,R1A-H,Public Sale,Available for Sale,Treasurer Sale,2021-10-15,2022-03-22,40.4685807338,-80.0339928234,42003271500,Marshall-Shadeland,1,27,1-14,1,1,Northern,Northern
1927817,1071522,,,615 DEVILLIERS ST,City of Pittsburgh,2256,Vacant Land,R1D-L,Public Sale,Sale Pending,Treasurer Sale,2019-10-18,2022-03-22,40.4445761213,-79.9813352778,42003030500,Crawford-Roberts,6,3,2-1,2,3,Central,Schenley
1927818,1083143,,,0 LOMBARD ST,City of Pittsburgh,5795,Vacant Land,RM-M,URA Transfer,Available for Sale,Treasurer Sale,2021-10-15,2022-03-22,40.4397319216,-79.9785011961,42003030500,Crawford-Roberts,6,3,2-1,2,3,Central,Schenley
1927819,1083144,,,0 LAWSON ST,City of Pittsburgh,2000,Vacant Land,RM-M,URA Transfer,Available for Sale,Treasurer Sale,2021-10-15,2022-03-22,40.4467533518,-79.9765441553,42003050100,Middle Hill,6,5,2-5,2,3,Central,Schenley
1927820,1083145,,,0 WYLIE AVE,City of Pittsburgh,1741,Vacant Land,LNC,URA Transfer,Available for Sale,Treasurer Sale,2021-10-15,2022-03-22,40.4473259144,-79.9740827186,42003050100,Middle Hill,6,5,2-5,2,3,Central,Schenley
1927821,1083146,,,0 WEBSTER AVE,City of Pittsburgh,2651,Vacant Land,R2-L,URA Transfer,Available for Sale,Treasurer Sale,2021-10-15,2022-03-22,40.4553640107,-79.9617541202,42003050600,Upper Hill,6,5,2-22,2,3,Central,Schenley
1927822,1083147,,,808 CLARISSA ST,City of Pittsburgh,1983,Vacant Land,R2-L,URA Transfer,Available for Sale,Treasurer Sale,2021-10-15,2022-03-22,40.4528282514,-79.9595744463,42003050600,Upper Hill,6,5,2-22,2,3,Central,Schenley
1927823,1083148,,,0 OSSIPEE ST,City of Pittsburgh,1595,Vacant Land,R2-L,URA Transfer,Available for Sale,Treasurer Sale,2021-10-15,2022-03-22,40.4516107023,-79.9632436188,42003050600,Upper Hill,6,5,2-22,2,3,Central,Schenley
1927824,1083149,,,0 CHEROKEE ST,City of Pittsburgh,906,Vacant Land,R2-L,URA Transfer,Available for Sale,Treasurer Sale,2021-10-15,2022-03-22,40.4518967573,-79.9628902678,42003050600,Upper Hill,6,5,2-22,2,3,Central,Schenley
1927825,1083150,,,0 CHEROKEE ST,City of Pittsburgh,900,Vacant Land,R2-L,URA Transfer,Available for Sale,Treasurer Sale,2021-10-15,2022-03-22,40.4518908482,-79.962836502,42003050600,Upper Hill,6,5,2-22,2,3,Central,Schenley
1927826,1083216,,,0 WENKE ST,City of Pittsburgh,4441,Vacant Land,P,Public Sale,Available for Sale,Treasurer Sale,2021-10-15,2022-03-22,40.4144519682,-79.9769468598,42003561600,Arlington,3,16,4-8,3,4,Southern,Southern
1927827,1083218,,,420 SAINT JOSEPH ST,City of Pittsburgh,3873,Vacant Land,R1D-M,Public Sale,Available for Sale,Treasurer Sale,2021-10-15,2022-03-22,40.413292673,-79.9807535804,42003561700,Mt. Oliver,3,16,4-8,3,4,Southern,Southern
1927828,1083220,,,817 SCHULER ST,City of Pittsburgh,5078,Vacant Land,R2-L,URA Transfer,Available for Sale,Treasurer Sale,2021-10-15,2022-03-22,40.4095949209,-79.9750773144,42003561700,St. Clair,3,16,4-8,3,4,Southern,Southern
1927829,1083221,,,731 SCHULER ST,City of Pittsburgh,5078,Vacant Land,R2-L,URA Transfer,Available for Sale,Treasurer Sale,2021-10-15,2022-03-22,40.4096760017,-79.9758758263,42003561700,St. Clair,3,16,4-8,3,4,Southern,Southern
1927830,1083222,,,829 SCHULER ST,City of Pittsburgh,5078,Vacant Land,R2-L,URA Transfer,Available for Sale,Treasurer Sale,2021-10-15,2022-03-22,40.4095295021,-79.9744576236,42003561700,St. Clair,3,16,4-8,3,4,Southern,Southern
1927831,1083226,,,42 LAFFERTY AVE,City of Pittsburgh,1040,Vacant Land,R2-H,Public Sale,Available for Sale,Treasurer Sale,2021-10-15,2022-03-22,40.4172818374,-80.0082884258,42003562400,Beltzhoover,3,18,4-16,3,4,Southern,Southern
1927832,1083227,,,44 LAFFERTY AVE,City of Pittsburgh,1040,Vacant Land,R2-H,Public Sale,Available for Sale,Treasurer Sale,2021-10-15,2022-03-22,40.417302208,-80.008232123,42003562400,Beltzhoover,3,18,4-16,3,4,Southern,Southern
1927833,1083274,,,1206 AMANDA ST,City of Pittsburgh,3728,Building,R1D-H,Public Sale,Available for Sale,Treasurer Sale,2021-10-15,2022-03-22,40.4038709939,-79.9894636135,42003290200,Carrick,4,29,4-12,3,4,Southern,Southern
1927834,1083275,,,0 LEOLYN ST,City of Pittsburgh,3750,Vacant Land,R1D-H,Public Sale,Available for Sale,Treasurer Sale,2021-10-15,2022-03-22,40.3997080891,-79.9860675757,42003290200,Carrick,4,29,4-12,3,4,Southern,Southern
1927835,177484,,,2213 SAW MILL RUN BLVD,City of Pittsburgh,6202,Vacant Land,R1D-H,Hold for Study,Hold for Study,Treasurer Sale,1984-10-01,2022-03-22,40.3878212591,-79.9951294586,42003320400,Overbrook,4,32,4-23,3,4,Southern,Southern
1927836,1011472,,,5445 HILLCREST ST,City of Pittsburgh,1800,Vacant Land,R2-H,Public Sale,Sale Pending,Treasurer Sale,2019-08-16,2022-03-22,40.4675765237,-79.9324399115,42003111400,Garfield,9,11,3-4,5,2,Central,Northeast
1927837,1083151,,,5414 BROAD ST,City of Pittsburgh,2250,Vacant Land,R2-H,URA Transfer,Available for Sale,Treasurer Sale,2021-10-15,2022-03-22,40.4653063378,-79.9353106262,42003111400,Garfield,9,11,3-4,5,2,Central,Northeast
1927838,1083170,,,0 DEARY ST,City of Pittsburgh,3000,Vacant Land,RM-M,Public Sale,Available for Sale,Treasurer Sale,2021-10-15,2022-03-22,40.4655611082,-79.9036690867,42003120300,Lincoln-Lemington-Belmar,9,12,3-15,5,2,Eastern,Northeast
1927839,1083171,,,0 ROWAN ST,City of Pittsburgh,3000,Vacant Land,RM-M,Public Sale,Available for Sale,Treasurer Sale,2021-10-15,2022-03-22,40.4651715473,-79.9037664848,42003120300,Lincoln-Lemington-Belmar,9,12,3-15,5,2,Eastern,Northeast
1927840,1083172,,,0 ROWAN ST,City of Pittsburgh,3000,Vacant Land,RM-M,Public Sale,Available for Sale,Treasurer Sale,2021-10-15,2022-03-22,40.4652137931,-79.9038474575,42003120300,Lincoln-Lemington-Belmar,9,12,3-15,5,2,Eastern,Northeast
1927841,1083173,,,0 ROWAN ST,City of Pittsburgh,3000,Vacant Land,RM-M,Public Sale,Available for Sale,Treasurer Sale,2021-10-15,2022-03-22,40.4652604657,-79.9039206867,42003120300,Lincoln-Lemington-Belmar,9,12,3-15,5,2,Eastern,Northeast
1927842,1083174,,,0 ROWAN ST,City of Pittsburgh,3600,Vacant Land,RM-M,Public Sale,Available for Sale,Treasurer Sale,2021-10-15,2022-03-22,40.4653502826,-79.9040691536,42003120300,Lincoln-Lemington-Belmar,9,12,3-15,5,2,Eastern,Northeast
1927843,1083175,,,0 ROWAN ST,City of Pittsburgh,3000,Vacant Land,RM-M,Public Sale,Available for Sale,Treasurer Sale,2021-10-15,2022-03-22,40.4650922777,-79.9036332725,42003120300,Lincoln-Lemington-Belmar,9,12,3-15,5,2,Eastern,Northeast
1927844,1083176,,,0 ROWAN ST,City of Pittsburgh,3000,Vacant Land,RM-M,Public Sale,Available for Sale,Treasurer Sale,2021-10-15,2022-03-22,40.4650500693,-79.9035670684,42003120300,Lincoln-Lemington-Belmar,9,12,3-15,5,2,Eastern,Northeast
1927845,1083177,,,0 DEARY ST,City of Pittsburgh,2500,Vacant Land,RM-M,Public Sale,Available for Sale,Treasurer Sale,2021-10-15,2022-03-22,40.465522721,-79.9035957386,42003120300,Lincoln-Lemington-Belmar,9,12,3-15,5,2,Eastern,Northeast
1927846,1083188,,,6940 HARTMAN LN,City of Pittsburgh,3525,Building,R1D-L,Public Sale,Available for Sale,Treasurer Sale,2021-10-15,2022-03-22,40.4730766467,-79.8963317956,42003561900,Lincoln-Lemington-Belmar,9,12,3-18,5,2,Eastern,Northeast
1927847,1083168,,,0 THOMPSON ST,City of Pittsburgh,3250,Vacant Land,R1D-H,URA Transfer,Available for Sale,Treasurer Sale,2021-10-15,2022-03-22,40.4657780438,-79.9098586725,42003120400,Larimer,9,12,3-12,5,2,Eastern,Northeast
1927848,1083169,,,634 THOMPSON ST,City of Pittsburgh,3250,Building,R1D-H,URA Transfer,Available for Sale,Treasurer Sale,2021-10-15,2022-03-22,40.4658190542,-79.9097948779,42003120400,Larimer,9,12,3-12,5,2,Eastern,Northeast
1927849,1083179,,,0 WINFIELD ST,City of Pittsburgh,2274,Vacant Land,R1D-H,URA Transfer,Available for Sale,Treasurer Sale,2021-10-15,2022-03-22,40.4635241477,-79.9101172336,42003120400,Larimer,9,12,3-12,5,2,Eastern,Northeast
1927850,1083187,,,0 FRANKSTOWN AVE,City of Pittsburgh,7123,Vacant Land,LNC,URA Transfer,Available for Sale,Treasurer Sale,2021-10-15,2022-03-22,40.4595476212,-79.9102633096,42003120800,Larimer,9,12,3-10,5,2,Eastern,Northeast
1927851,954472,,,0 UNNAMED WAY,City of Pittsburgh,5000,Vacant Land,H,Greenway,Permanent City Ownership,,,2021-07-13,40.4186315326,-79.9453259885,42003562900,Hazelwood,5,15,2-12,4,3,Eastern,Eastern
1927852,1079905,,,707 ELKTON ST,City of Pittsburgh,4700,Building,R1A-M,Public Sale,Sale Pending,Treasurer Sale,2020-12-18,2023-11-03,40.4448776925,-80.0341978245,42003562600,Elliott,2,20,1-17,6,5,Northern,Emerald
1927853,184394,,,510  STRATMORE AV,City of Pittsburgh,1176,Building,R2-L,Public Sale,Sale Pending,Treasurer Sale,2013-10-25,2023-11-16,40.4417292622,-80.0568695111,42003281500,Crafton Heights,2,28,1-18,6,5,Northern,Emerald
1927854,184395,,,512  STRATMORE AV,City of Pittsburgh,1159,Building,R2-L,Public Sale,Sale Pending,Treasurer Sale,2013-10-25,2023-11-16,40.4417743374,-80.0568971819,42003281500,Crafton Heights,2,28,1-18,6,5,Northern,Emerald
1927855,184399,,,514  STRATMORE AV,City of Pittsburgh,1166,Building,R2-L,Public Sale,Sale Pending,Treasurer Sale,2013-10-25,2023-11-16,40.4418126617,-80.0569213122,42003281500,Crafton Heights,2,28,1-18,6,5,Northern,Emerald
1927856,1083237,,,3003 ZEPHYR AVE,City of Pittsburgh,2725,Vacant Land,R1D-H,Public Sale,Sale Pending,Treasurer Sale,2021-10-15,2023-11-08,40.4563229904,-80.0537815891,42003562500,Sheraden,2,20,1-16,6,5,Northern,Emerald
1927857,1083239,,,3012 ZEPHYR AVE,City of Pittsburgh,2500,Vacant Land,R1D-H,Public Sale,Sale Pending,Treasurer Sale,2021-10-15,2023-11-06,40.4567478072,-80.0535728746,42003562500,Sheraden,2,20,1-16,6,5,Northern,Emerald
1927858,1104071,,,516 CEDARHURST ST,City of Pittsburgh,2486,Vacant Land,R2-H,Public Sale,Sale Pending,Treasurer Sale,2022-08-19,2023-11-21,40.4180913702,-79.998084251,42003562400,Beltzhoover,3,18,4-21,3,4,Southern,McKinley
1927859,172189,,,268 LOMBARD ST,City of Pittsburgh,2842,Vacant Land,RM-M,Public Sale,Sale Pending,Treasurer Sale,1985-10-07,2023-11-17,40.4408571856,-79.9794325589,42003030500,Crawford-Roberts,6,3,2-1,2,3,Central,Schenley
1927860,184373,,,746  CLARISSA ST,City of Pittsburgh,1210,Building,R2-L,Public Sale,Sale Pending,Treasurer Sale,2015-08-14,2023-11-17,40.4530772922,-79.9602591186,42003050600,Upper Hill,6,5,2-22,2,3,Central,Schenley
1927861,175736,,,4918 ROSETTA ST,City of Pittsburgh,5500,Vacant Land,R1D-H,Public Sale,Sale Pending,Treasurer Sale,2012-07-27,2023-11-30,40.4679702392,-79.9436554685,42003101700,Garfield,9,10,3-4,5,2,Central,Highland
1927862,983076,,,415 N GRAHAM ST,City of Pittsburgh,2420,Vacant Land,R2-H,Public Sale,Sale Pending,Treasurer Sale,2017-10-27,2023-11-21,40.4678879089,-79.9337403728,42003111400,Garfield,9,11,3-4,5,2,Central,Highland
1927863,185061,,,6506  MEADOW ST,City of Pittsburgh,884,Vacant Land,R1D-M,Public Sale,Sale Pending,Treasurer Sale,2013-04-26,2023-11-15,40.46193612637181,-79.91099984061518,42003120800,Larimer,9,12,3-12,5,2,Eastern,Highland
1927864,184086,,,1050  N WHEELER ST,City of Pittsburgh,3000,Vacant Land,R2-L,Public Sale,Sale Pending,Treasurer Sale,2015-10-30,2023-11-15,40.45801474222588,-79.88427651614339,42003130100,Homewood North,9,13,3-17,5,2,Eastern,Frick
1927865,1104064,,,0 OAKWOOD ST,City of Pittsburgh,5385,Vacant Land,RM-M,Public Sale,Sale Pending,Treasurer Sale,2022-08-19,2023-11-29,40.4535142814,-79.8856575582,42003130400,Homewood South,9,13,3-17,5,2,Eastern,Frick
1927866,176047,,,3 MOBILE ST,City of Pittsburgh,9889,Vacant Land,R1D-H,Hold for Study,Permanent City Ownership,Treasurer Sale,2010-07-30,2023-11-14,40.4165410243,-79.9457591397,42003562900,Hazelwood,5,15,2-13,4,3,Eastern,Frick
1927867,184444,,,714  NAYLOR,City of Pittsburgh,1920,Vacant Land,R1D-H,Public Sale,Sale Pending,Unknown,2010-07-30,2022-07-29,40.4298550769,-79.9419917228,42003151600,Greenfield,5,14,2-12,4,3,Eastern,Schenley
1927868,1011513,,,22 EXETER ST,City of Pittsburgh,2250,Vacant Land,R1D-H,Public Sale,Sale Pending,Treasurer Sale,2019-08-16,2022-07-29,40.4204984443,-79.9309025257,42003151700,Greenfield,5,15,2-12,4,3,Eastern,Schenley
1927869,179952,,,5008 GLENWOOD AVE,City of Pittsburgh,4240,Vacant Land,R1D-M,Public Sale,Sale Pending,Treasurer Sale,1990-08-06,2022-07-29,40.4090160489,-79.9404803076,42003562300,Hazelwood,5,15,2-13,4,3,Eastern,Eastern
1927870,173794,,,1202 SEIDLE ST,City of Pittsburgh,2500,Vacant Land,R1D-M,Public Sale,Sale Pending,Treasurer Sale,2009-11-20,2022-07-08,40.4611072339,-79.9917369587,42003241200,Spring Garden,1,24,1-5,1,1,Northern,Northern
1927871,175642,,,1544 RHINE ST,City of Pittsburgh,2613,Vacant Land,R1A-H,Public Sale,Sale Pending,Treasurer Sale,2008-09-26,2022-07-08,40.463145569,-79.9909355478,42003262000,Spring Hill-City View,1,24,1-24,1,1,Northern,Northern
1927872,175643,,,1548 RHINE ST,City of Pittsburgh,3750,Vacant Land,R1A-H,Public Sale,Sale Pending,Treasurer Sale,2008-09-26,2022-07-08,40.463271764,-79.990940541,42003262000,Spring Hill-City View,1,24,1-24,1,1,Northern,Northern
1927873,184553,,,618  FREELAND,City of Pittsburgh,3125,Vacant Land,R1D-H,Public Sale,Sale Pending,Unknown,1983-07-18,2019-05-28,40.4188952945,-79.9964748123,42003180300,Allentown,3,18,4-21,3,5,Southern,Emerald
1927874,184273,,,515  LOWELL ST,City of Pittsburgh,1800,Vacant Land,R1D-H,Public Sale,Sale Pending,Treasurer Sale,2013-04-26,2019-05-06,40.46280851888797,-79.91051082358997,42003120400,Larimer,9,12,3-12,5,2,Eastern,Highland
1927875,985749,,,2717 STAYTON ST,City of Pittsburgh,1523,Vacant Land,R1A-VH,Public Sale,Cancelled,Treasurer Sale,2018-04-20,2019-05-15,40.470082194,-80.0276630183,42003271500,Marshall-Shadeland,1,27,1-14,1,1,Northern,Riverview
1927876,985750,,,2719 STAYTON ST,City of Pittsburgh,958,Vacant Land,R1A-VH,Public Sale,Cancelled,Treasurer Sale,2018-04-20,2019-05-15,40.4701535565,-80.0276894469,42003271500,Marshall-Shadeland,1,27,1-14,1,1,Northern,Riverview
1927877,983138,,,1417 SPRING GARDEN AVE,City of Pittsburgh,2794,Vacant Land,R1A-M,Public Sale,Available for Sale,Treasurer Sale,2017-10-27,2018-05-30,40.4620927857,-79.9868853502,42003241200,Spring Garden,1,24,1-24,1,1,Northern,Riverview
1927878,983139,,,1425 SPRING GARDEN AVE,City of Pittsburgh,7468,Vacant Land,R1A-M,Public Sale,Available for Sale,Treasurer Sale,2017-10-27,2018-05-30,40.4622021693,-79.9868184716,42003241200,Spring Garden,1,24,1-24,1,1,Northern,Riverview
1927879,983136,,,1307 TELL ST,City of Pittsburgh,2284,Building,R1A-M,CDC Property Reserve,Sale Pending,Treasurer Sale,2017-10-27,2018-05-30,40.4602613236,-79.9882134501,42003241200,Spring Garden,1,24,1-5,1,1,Northern,Riverview
1927880,983137,,,1307 TELL ST,City of Pittsburgh,1078,Vacant Land,R1A-M,CDC Property Reserve,Sale Pending,Treasurer Sale,2017-10-27,2018-05-30,40.4602198238,-79.9881129127,42003241200,Spring Garden,1,24,1-5,1,1,Northern,Riverview
1927881,983146,,,69 EDENVALE ST,City of Pittsburgh,884,Building,R1D-H,Public Sale,Available for Sale,Treasurer Sale,2017-10-27,2018-05-30,40.462381955,-80.0033151274,42003250900,Fineview,1,25,1-10,1,1,Northern,Riverview
1927882,983147,,,71 EDENVALE ST,City of Pittsburgh,1100,Building,R1D-H,Public Sale,Available for Sale,Treasurer Sale,2017-10-27,2018-05-30,40.4624293381,-80.0033290526,42003250900,Fineview,1,25,1-10,1,1,Northern,Riverview
1927883,983155,,,108 IRELAND WAY,City of Pittsburgh,1008,Vacant Land,R1A-H,Public Sale,Available for Sale,Treasurer Sale,2017-10-27,2018-05-30,40.4668300241,-80.0332284712,42003271500,Marshall-Shadeland,1,27,1-14,1,1,Northern,Riverview
1927884,983108,,,2430 GLENMAWR ST,City of Pittsburgh,3275,Vacant Land,H,Public Sale,Available for Sale,Treasurer Sale,2017-10-27,2018-05-30,40.4531320207,-80.0430933337,42003562500,Sheraden,2,20,1-16,6,5,Northern,Emerald
1927885,983109,,,340 MINTON ST,City of Pittsburgh,2475,Vacant Land,R1D-H,Public Sale,Available for Sale,Treasurer Sale,2017-10-27,2018-05-30,40.4577275953,-80.0511285562,42003562500,Sheraden,2,20,1-16,6,5,Northern,Emerald
1927886,983060,,,361 LAWN ST,City of Pittsburgh,1661,Vacant Land,R1A-VH,Public Sale,Available for Sale,Treasurer Sale,2017-10-27,2018-05-30,40.4337711934,-79.9611758027,42003040900,South Oakland,3,4,2-10,4,3,Central,Schenley
1927887,983061,,,0 WAKEFIELD ST,City of Pittsburgh,1000,Vacant Land,H,Unknown Public Use,Hold for Study,Treasurer Sale,2017-10-27,2018-05-30,40.4310827789,-79.9571643018,42003040900,South Oakland,3,4,2-11,4,3,Central,Schenley
1927888,983092,,,210 FLACK ST,City of Pittsburgh,7440,Vacant Land,R2-L,Public Sale,Available for Sale,Treasurer Sale,2017-10-27,2018-05-30,40.4151724567,-79.9709572771,42003561600,Arlington,3,16,4-8,3,3,Southern,Schenley
1927889,983090,,,2812 MARY ST,City of Pittsburgh,1200,Building,R1A-VH,Unknown Public Use,Hold for Study,Treasurer Sale,2017-10-27,2018-05-30,40.4239575764,-79.967647905,42003160800,South Side Slopes,3,16,4-24,3,3,Southern,Schenley
1927890,983091,,,2808 MARY ST,City of Pittsburgh,5232,Building,R1A-VH,Unknown Public Use,Hold for Study,Treasurer Sale,2017-10-27,2018-05-30,40.4239628468,-79.9678113456,42003160800,South Side Slopes,3,16,4-24,3,3,Southern,Schenley
1927891,983094,,,1925 WRIGHTS WAY,City of Pittsburgh,1200,Building,R1A-VH,Unknown Public Use,Hold for Study,Treasurer Sale,2017-10-27,2018-05-30,40.4291858526,-79.9780191588,42003170200,South Side Flats,3,17,4-24,3,3,Southern,Schenley
1927892,983097,,,525 FREELAND ST,City of Pittsburgh,1750,Vacant Land,R2-H,Public Sale,Available for Sale,Treasurer Sale,2017-10-27,2018-05-30,40.4192614419,-79.9978682062,42003562400,Beltzhoover,3,18,4-21,3,5,Southern,Emerald
1927893,172553,,,613 INDUSTRY ST,City of Pittsburgh,2313,Vacant Land,R1D-H,Public Sale,Sale Pending,Treasurer Sale,2000-09-22,2018-05-17,40.4209365279,-79.996796529,42003180300,Allentown,3,18,4-21,3,5,Southern,Emerald
1927894,983100,,,867 LILLIAN ST,City of Pittsburgh,1250,Building,R1D-H,Public Sale,Available for Sale,Treasurer Sale,2017-10-27,2018-05-30,40.4188734543,-79.9911352289,42003180300,Allentown,3,18,4-6,3,5,Southern,Emerald
1927895,983105,,,722 LILLIAN ST,City of Pittsburgh,2317,Building,R1D-H,Public Sale,Available for Sale,Treasurer Sale,2017-10-27,2018-05-30,40.4185085901,-79.994811412,42003180300,Allentown,3,18,4-21,3,5,Southern,Emerald
1927896,983106,,,61 PASADENA ST,City of Pittsburgh,2700,Vacant Land,R1D-H,Public Sale,Available for Sale,Treasurer Sale,2017-10-27,2018-05-30,40.4234855576,-80.0015309252,42003180700,Mount Washington,3,18,4-5,3,5,Southern,Emerald
1927897,983095,,,119 MILLBRIDGE ST,City of Pittsburgh,4218,Vacant Land,R1D-H,URA Transfer,Available for Sale,Treasurer Sale,2017-10-27,2018-05-30,40.421179203,-79.9955241,42003180300,Allentown,3,18,4-21,3,5,Southern,Emerald
1927898,983098,,,205 MILLBRIDGE ST,City of Pittsburgh,2850,Building,R1D-H,URA Transfer,Available for Sale,Treasurer Sale,2017-10-27,2018-05-30,40.4205637888,-79.9955042291,42003180300,Allentown,3,18,4-21,3,5,Southern,Emerald
1927899,983157,,,433 ZARA ST,City of Pittsburgh,2500,Building,R1D-H,Public Sale,Available for Sale,Treasurer Sale,2017-10-27,2018-05-30,40.4158786872,-79.9967576181,42003300100,Knoxville,3,30,4-21,3,5,Southern,Emerald
1927900,983156,,,212 NEWETT ST,City of Pittsburgh,6076,Building,R2-L,Public Sale,Available for Sale,Treasurer Sale,2017-10-27,2018-05-30,40.3966386452,-79.9913197656,42003290100,Carrick,4,29,4-23,3,3,Southern,Schenley
1927901,983088,,,132 MARSDEN ST,City of Pittsburgh,700,Vacant Land,R1A-H,Public Sale,Available for Sale,Treasurer Sale,2017-10-27,2018-05-30,40.4104723404,-79.9431235441,42003562300,Hazelwood,5,15,2-13,4,3,Eastern,Frick
1927902,983089,,,54 ALMEDA ST,City of Pittsburgh,2880,Vacant Land,R1A-H,Public Sale,Available for Sale,Treasurer Sale,2017-10-27,2018-05-30,40.4031886394,-79.9395463543,42003562300,Hazelwood,5,15,2-13,4,3,Eastern,Frick
1927903,983056,,,2013 DE RUAD ST,City of Pittsburgh,1481,Building,R2-VH,URA Transfer,Available for Sale,Treasurer Sale,2017-10-27,2018-05-30,40.4387023859,-79.9761128606,42003040200,West Oakland,6,4,2-1,4,3,Central,Schenley
1927904,983057,,,2015 DE RUAD ST,City of Pittsburgh,3000,Building,R2-VH,URA Transfer,Available for Sale,Treasurer Sale,2017-10-27,2018-05-30,40.4386962852,-79.9760398109,42003040200,West Oakland,6,4,2-1,4,3,Central,Schenley
1927905,983058,,,2007 DE RUAD ST,City of Pittsburgh,850,Vacant Land,R2-VH,URA Transfer,Available for Sale,Treasurer Sale,2017-10-27,2018-05-30,40.4386748561,-79.9763150082,42003040200,West Oakland,6,4,2-1,4,3,Central,Schenley
1927906,983062,,,2610 BEDFORD AVE,City of Pittsburgh,2640,Vacant Land,RM-M,Public Sale,Available for Sale,Treasurer Sale,2017-10-27,2018-05-30,40.4510707132,-79.9710077974,42003050900,Bedford Dwellings,6,5,2-5,2,3,Central,Schenley
1927907,983063,,,2612 BEDFORD AVE,City of Pittsburgh,2640,Vacant Land,RM-M,Public Sale,Available for Sale,Treasurer Sale,2017-10-27,2018-05-30,40.4511021087,-79.9709317501,42003050900,Bedford Dwellings,6,5,2-5,2,3,Central,Schenley
1927908,983065,,,713 WEBSTER TER,City of Pittsburgh,1394,Building,RM-M,Public Sale,Available for Sale,Treasurer Sale,2017-10-27,2018-05-30,40.4519831093,-79.9680532021,42003050100,Middle Hill,6,5,2-5,2,3,Central,Schenley
1927909,983066,,,2447 WYLIE AVE,City of Pittsburgh,2608,Vacant Land,LNC,Public Sale,Available for Sale,Treasurer Sale,2017-10-27,2018-05-30,40.4481834905,-79.9719492393,42003050100,Middle Hill,6,5,2-5,2,3,Central,Schenley
1927910,983068,,,633 DUFF ST,City of Pittsburgh,1940,Vacant Land,RM-M,Public Sale,Available for Sale,Treasurer Sale,2017-10-27,2018-05-30,40.4485817626,-79.9732372087,42003050100,Middle Hill,6,5,2-5,2,3,Central,Schenley
1927911,983069,,,635 DUFF ST,City of Pittsburgh,1940,Vacant Land,RM-M,Public Sale,Available for Sale,Treasurer Sale,2017-10-27,2018-05-30,40.4486317131,-79.9732670454,42003050100,Middle Hill,6,5,2-5,2,3,Central,Schenley
1927912,983064,,,2628 BEDFORD AVE,City of Pittsburgh,2096,Building,RM-M,CDC Property Reserve,Sale Pending,Treasurer Sale,2017-10-27,2018-05-30,40.4513338251,-79.970389229,42003050900,Bedford Dwellings,6,5,2-5,2,3,Central,Schenley
1927913,983158,,,2354 BEDFORD AVE,City of Pittsburgh,3000,Vacant Land,RM-M,CDC Property Reserve,Sale Pending,Treasurer Sale,2017-10-27,2018-05-30,40.4494804108,-79.9747193178,42003050100,Middle Hill,6,5,2-5,2,3,Central,Schenley
1927914,983159,,,2352 BEDFORD AVE,City of Pittsburgh,1522,Vacant Land,RM-M,CDC Property Reserve,Sale Pending,Treasurer Sale,2017-10-27,2018-05-30,40.4494509782,-79.9747764218,42003050100,Middle Hill,6,5,2-5,2,3,Central,Schenley
1927915,983160,,,2401 WEBSTER AVE,City of Pittsburgh,967,Building,RM-M,CDC Property Reserve,Sale Pending,Treasurer Sale,2017-10-27,2018-05-30,40.4493547965,-79.9735515477,42003050100,Middle Hill,6,5,2-5,2,3,Central,Schenley
1927916,983070,,,2501 CENTRE AVE,City of Pittsburgh,4721,Building,RM-M,CDC Property Reserve,Sale Pending,Treasurer Sale,2017-10-27,2018-05-30,40.4456981035,-79.9706886382,42003050100,Middle Hill,6,5,2-5,2,3,Central,Schenley
1927917,983071,,,738 CLARISSA ST,City of Pittsburgh,2946,Vacant Land,R2-L,CDC Property Reserve,Sale Pending,Treasurer Sale,2017-10-27,2018-05-30,40.4531208903,-79.9605589609,42003050600,Upper Hill,6,5,2-22,2,3,Central,Schenley
1927918,983117,,,1204 CALIFORNIA AVE,City of Pittsburgh,1230,Vacant Land,R1A-M,URA Transfer,Available for Sale,Treasurer Sale,2017-10-27,2018-05-30,40.4603813724,-80.0244309186,42003250700,California-Kirkbride,6,21,1-9,1,1,Northern,Riverview
1927919,983118,,,1449 WARNER ST,City of Pittsburgh,1478,Building,R1A-VH,URA Transfer,Available for Sale,Treasurer Sale,2017-10-27,2018-05-30,40.4577023057,-80.0292908542,42003210700,Manchester,6,21,1-8,1,1,Northern,Riverview
1927920,983119,,,1428 WARNER ST,City of Pittsburgh,1095,Vacant Land,R1A-VH,URA Transfer,Available for Sale,Treasurer Sale,2017-10-27,2018-05-30,40.4580427719,-80.0287929107,42003210700,Manchester,6,21,1-8,1,1,Northern,Riverview
1927921,983120,,,1430 WARNER ST,City of Pittsburgh,1115,Vacant Land,R1A-VH,URA Transfer,Available for Sale,Treasurer Sale,2017-10-27,2018-05-30,40.4580303653,-80.0288602881,42003210700,Manchester,6,21,1-8,1,1,Northern,Riverview
1927922,983121,,,1437 ADAMS ST,City of Pittsburgh,2580,Building,R1A-VH,URA Transfer,Available for Sale,Treasurer Sale,2017-10-27,2018-05-30,40.4580971814,-80.0290321319,42003210700,Manchester,6,21,1-8,1,1,Northern,Riverview
1927923,983122,,,1814 CHATEAU ST,City of Pittsburgh,1080,Building,R1A-VH,URA Transfer,Available for Sale,Treasurer Sale,2017-10-27,2018-05-30,40.4578756128,-80.0294140543,42003210700,Manchester,6,21,1-8,1,1,Northern,Riverview
1927924,983123,,,1900 CHATEAU ST,City of Pittsburgh,2500,Vacant Land,R1A-VH,URA Transfer,Available for Sale,Treasurer Sale,2017-10-27,2018-05-30,40.4583910026,-80.0295070265,42003210700,Manchester,6,21,1-8,1,1,Northern,Riverview
1927925,983124,,,1902 CHATEAU ST,City of Pittsburgh,2300,Vacant Land,R1A-VH,URA Transfer,Available for Sale,Treasurer Sale,2017-10-27,2018-05-30,40.4584548974,-80.0295237223,42003210700,Manchester,6,21,1-8,1,1,Northern,Riverview
1927926,983125,,,1445 BELDALE ST,City of Pittsburgh,1320,Building,R1A-VH,URA Transfer,Available for Sale,Treasurer Sale,2017-10-27,2018-05-30,40.4586563916,-80.0293718951,42003210700,Manchester,6,21,1-8,1,1,Northern,Riverview
1927927,983126,,,1434 ADAMS ST,City of Pittsburgh,2793,Vacant Land,R1A-VH,URA Transfer,Available for Sale,Treasurer Sale,2017-10-27,2018-05-30,40.4585945066,-80.0291974905,42003210700,Manchester,6,21,1-8,1,1,Northern,Riverview
1927928,983127,,,1424 ADAMS ST,City of Pittsburgh,1600,Vacant Land,R1A-VH,URA Transfer,Available for Sale,Treasurer Sale,2017-10-27,2018-05-30,40.4585939468,-80.0288193588,42003210700,Manchester,6,21,1-8,1,1,Northern,Riverview
1927929,983128,,,1422 ADAMS ST,City of Pittsburgh,1782,Vacant Land,R1A-VH,URA Transfer,Available for Sale,Treasurer Sale,2017-10-27,2018-05-30,40.4586153342,-80.0287523055,42003210700,Manchester,6,21,1-8,1,1,Northern,Riverview
1927930,983129,,,1446 BELDALE ST,City of Pittsburgh,1400,Building,R1A-VH,URA Transfer,Available for Sale,Treasurer Sale,2017-10-27,2018-05-30,40.4589002924,-80.0294512607,42003210700,Manchester,6,21,1-8,1,1,Northern,Riverview
1927931,983130,,,0 WARNER ST,City of Pittsburgh,1183,Vacant Land,R1A-VH,URA Transfer,Available for Sale,Treasurer Sale,2017-10-27,2018-05-30,40.4583879341,-80.0268930412,42003210700,Manchester,6,21,1-8,1,1,Northern,Riverview
1927932,983132,,,1311 ADAMS ST,City of Pittsburgh,1440,Building,R1A-VH,URA Transfer,Available for Sale,Treasurer Sale,2017-10-27,2018-05-30,40.4586124097,-80.0266559159,42003210700,Manchester,6,21,1-8,1,1,Northern,Riverview
1927933,983133,,,1817 FULTON ST,City of Pittsburgh,900,Building,R1A-VH,URA Transfer,Available for Sale,Treasurer Sale,2017-10-27,2018-05-30,40.4584832536,-80.0263197086,42003210700,Manchester,6,21,1-8,1,1,Northern,Riverview
1927934,983148,,,0 PERRYSVILLE AVE,City of Pittsburgh,56175,Vacant Land,H,Public Sale,Available for Sale,Treasurer Sale,2017-10-27,2018-05-30,40.4598219672,-80.0098446945,42003250300,Central Northside,6,25,1-10,1,1,Northern,Riverview
1927935,983169,,,2106 LETSCHE ST,City of Pittsburgh,3240,Building,R1D-L,Public Sale,Available for Sale,Treasurer Sale,2017-10-27,2018-05-30,40.4647206669,-80.0087830107,42003250900,Fineview,6,25,1-10,1,1,Northern,Riverview
1927936,983142,,,2018 N CHARLES ST,City of Pittsburgh,8800,Vacant Land,H,URA Transfer,Available for Sale,Treasurer Sale,2017-10-27,2018-05-30,40.4620647804,-80.0176512072,42003261400,Perry South,6,25,1-10,1,1,Northern,Riverview
1927937,983143,,,936 CALIFORNIA AVE,City of Pittsburgh,1650,Vacant Land,RM-M,URA Transfer,Available for Sale,Treasurer Sale,2017-10-27,2018-05-30,40.4592187231,-80.0205431648,42003250700,California-Kirkbride,6,25,1-9,1,1,Northern,Riverview
1927938,983144,,,938 CALIFORNIA AVE,City of Pittsburgh,5500,Vacant Land,RM-M,URA Transfer,Available for Sale,Treasurer Sale,2017-10-27,2018-05-30,40.459194797,-80.0206147307,42003250700,California-Kirkbride,6,25,1-9,1,1,Northern,Riverview
1927939,983145,,,942 CALIFORNIA AVE,City of Pittsburgh,1650,Vacant Land,RM-M,URA Transfer,Available for Sale,Treasurer Sale,2017-10-27,2018-05-30,40.4591873389,-80.0206938249,42003250700,California-Kirkbride,6,25,1-9,1,1,Northern,Riverview
1927940,983167,,,621 CHAUTAUQUA ST,City of Pittsburgh,2176,Vacant Land,R1A-VH,URA Transfer,Available for Sale,Treasurer Sale,2017-10-27,2018-05-30,40.4639442022,-80.0171396858,42003261400,Perry South,6,25,1-12,1,1,Northern,Riverview
1927941,983150,,,2316 N CHARLES ST,City of Pittsburgh,2956,Vacant Land,R1D-H,URA Transfer,Available for Sale,Treasurer Sale,2017-10-27,2018-05-30,40.4647741423,-80.0203530961,42003261400,Perry South,6,26,1-12,1,1,Northern,Riverview
1927942,983170,,,0 CHESTER AVE,City of Pittsburgh,1605,Vacant Land,H,URA Transfer,Available for Sale,Treasurer Sale,2017-10-27,2018-05-30,40.4664490463,-80.0158194737,42003261400,Perry South,6,26,1-12,1,1,Northern,Riverview
1927943,983171,,,0 CHESTER AVE,City of Pittsburgh,1817,Vacant Land,H,URA Transfer,Available for Sale,Treasurer Sale,2017-10-27,2018-05-30,40.4664725802,-80.0157623808,42003261400,Perry South,6,26,1-12,1,1,Northern,Riverview
1927944,983172,,,513 CHESTER AVE,City of Pittsburgh,1673,Vacant Land,H,URA Transfer,Available for Sale,Treasurer Sale,2017-10-27,2018-05-30,40.4665044802,-80.015698908,42003261400,Perry South,6,26,1-12,1,1,Northern,Riverview
1927945,983174,,,0 CHESTER AVE,City of Pittsburgh,9095,Vacant Land,H,URA Transfer,Available for Sale,Treasurer Sale,2017-10-27,2018-05-30,40.4665815319,-80.0153270906,42003261400,Perry South,6,26,1-12,1,1,Northern,Riverview
1927946,549984,,,0  PERRYSVILLE AVE AV,City of Pittsburgh,,Vacant Land,R1D-H,CDC Property Reserve,Acquisition Pending,Treasurer Sale,2016-04-29,2018-05-09,40.4697411287,-80.0086649328,42003261400,Perry South,6,26,1-23,1,1,Northern,Riverview
1927947,983151,,,2232 HOLYOKE ST,City of Pittsburgh,4685,Building,R1D-H,CDC Property Reserve,Sale Pending,Treasurer Sale,2017-10-27,2018-05-30,40.4655805797,-80.0138650053,42003261400,Perry South,6,26,1-12,1,1,Northern,Riverview
1927948,983152,,,2235 WILSON AVE,City of Pittsburgh,2400,Building,R1D-H,CDC Property Reserve,Sale Pending,Treasurer Sale,2017-10-27,2018-05-30,40.4657013795,-80.0132784047,42003261400,Perry South,6,26,1-12,1,1,Northern,Riverview
1927949,983153,,,302 W BURGESS ST,City of Pittsburgh,2368,Building,R1D-H,CDC Property Reserve,Sale Pending,Treasurer Sale,2017-10-27,2018-05-30,40.4665115815,-80.0134554327,42003261400,Perry South,6,26,1-12,1,1,Northern,Riverview
1927950,983154,,,300 W BURGESS ST,City of Pittsburgh,2997,Building,R1D-H,CDC Property Reserve,Sale Pending,Treasurer Sale,2017-10-27,2018-05-30,40.4665470315,-80.0133809148,42003261400,Perry South,6,26,1-12,1,1,Northern,Riverview
1927951,983175,,,2222 WILSON AVE,City of Pittsburgh,3720,Building,R1D-H,CDC Property Reserve,Sale Pending,Treasurer Sale,2017-10-27,2018-05-30,40.4655832488,-80.0126083473,42003261400,Perry South,6,26,1-12,1,1,Northern,Riverview
1927952,983176,,,2220 WILSON AVE,City of Pittsburgh,3000,Building,R1D-H,CDC Property Reserve,Sale Pending,Treasurer Sale,2017-10-27,2018-05-30,40.4655098469,-80.012579213,42003261400,Perry South,6,26,1-12,1,1,Northern,Riverview
1927953,983177,,,2214 WILSON AVE,City of Pittsburgh,2577,Building,R1D-H,CDC Property Reserve,Sale Pending,Treasurer Sale,2017-10-27,2018-05-30,40.4653165357,-80.0125318742,42003261400,Perry South,6,26,1-12,1,1,Northern,Riverview
1927954,983072,,,3416 RUTHVEN ST,City of Pittsburgh,2200,Vacant Land,H,URA Transfer,Available for Sale,Treasurer Sale,2017-10-27,2018-05-30,40.4596856548,-79.9630375263,42003060500,Polish Hill,7,6,2-6,2,6,Central,Highland
1927955,983073,,,3418 RUTHVEN ST,City of Pittsburgh,2200,Vacant Land,H,URA Transfer,Available for Sale,Treasurer Sale,2017-10-27,2018-05-30,40.4597008626,-79.9629636826,42003060500,Polish Hill,7,6,2-6,2,6,Central,Highland
1927956,983074,,,3422 RUTHVEN ST,City of Pittsburgh,2200,Vacant Land,H,URA Transfer,Available for Sale,Treasurer Sale,2017-10-27,2018-05-30,40.459731933,-79.9628098802,42003060500,Polish Hill,7,6,2-6,2,6,Central,Highland
1927957,983075,,,0 FLEETWOOD ST,City of Pittsburgh,3978,Vacant Land,H,URA Transfer,Available for Sale,Treasurer Sale,2017-10-27,2018-05-30,40.4597312457,-79.9582930382,42003060500,Polish Hill,7,6,2-6,2,6,Central,Highland
1927958,983161,,,3529 RIDGEWAY ST,City of Pittsburgh,9418,Vacant Land,H,URA Transfer,Available for Sale,Treasurer Sale,2017-10-27,2018-05-30,40.4579220529,-79.9593167513,42003060500,Polish Hill,7,6,2-24,2,3,Central,Highland
1927959,983162,,,0 RIDGEWAY ST,City of Pittsburgh,2090,Vacant Land,H,URA Transfer,Available for Sale,Treasurer Sale,2017-10-27,2018-05-30,40.4578170513,-79.959499768,42003060500,Polish Hill,7,6,2-24,2,3,Central,Highland
1927960,983163,,,3303 RIDGEWAY ST,City of Pittsburgh,792,Vacant Land,H,URA Transfer,Available for Sale,Treasurer Sale,2017-10-27,2018-05-30,40.4554537809,-79.9658726129,42003060500,Polish Hill,7,6,2-24,2,3,Central,Highland
1927961,983164,,,0 RIDGEWAY ST,City of Pittsburgh,1716,Vacant Land,H,URA Transfer,Available for Sale,Treasurer Sale,2017-10-27,2018-05-30,40.4571854325,-79.9604847244,42003060500,Polish Hill,7,6,2-24,2,3,Central,Highland
1927962,983165,,,3423 RIDGEWAY ST,City of Pittsburgh,2610,Vacant Land,H,URA Transfer,Available for Sale,Treasurer Sale,2017-10-27,2018-05-30,40.4569784101,-79.9611246969,42003060500,Polish Hill,7,6,2-24,2,3,Central,Highland
1927963,983077,,,6546 ROWAN ST,City of Pittsburgh,1587,Building,RM-M,Public Sale,Available for Sale,Treasurer Sale,2017-10-27,2018-05-30,40.4657679469,-79.9056390854,42003120300,Lincoln-Lemington-Belmar,9,12,3-15,5,2,Eastern,Highland
1927964,185044,,,6534  LLEWELLYN PL,City of Pittsburgh,648,Vacant Land,R1D-H,Public Sale,Sale Pending,Treasurer Sale,2013-04-26,2018-05-22,40.46156381542452,-79.90972260605938,42003120400,Larimer,9,12,3-12,5,2,Eastern,Highland
1927965,983079,,,7051 CHAUCER ST,City of Pittsburgh,2000,Vacant Land,R2-L,Public Sale,Available for Sale,Treasurer Sale,2017-10-27,2018-05-30,40.4636398299,-79.8971195981,42003130100,Homewood North,9,13,3-18,5,2,Eastern,Highland
1927966,983080,,,7053 CHAUCER ST,City of Pittsburgh,2000,Building,R2-L,Public Sale,Available for Sale,Treasurer Sale,2017-10-27,2018-05-30,40.4636163855,-79.8970179235,42003130100,Homewood North,9,13,3-18,5,2,Eastern,Highland
1927967,983081,,,7338 HERMITAGE ST,City of Pittsburgh,2318,Vacant Land,R2-L,Public Sale,Available for Sale,Treasurer Sale,2017-10-27,2018-05-30,40.4591336204,-79.8915170395,42003130200,Homewood North,9,13,3-17,5,2,Eastern,Highland
1927968,983083,,,335 HALE ST,City of Pittsburgh,1133,Vacant Land,RM-M,Public Sale,Available for Sale,Treasurer Sale,2017-10-27,2018-05-30,40.4518591439,-79.8879459919,42003130400,Homewood South,9,13,3-17,5,2,Eastern,Frick
1927969,983084,,,333 HALE ST,City of Pittsburgh,967,Vacant Land,RM-M,Public Sale,Available for Sale,Treasurer Sale,2017-10-27,2018-05-30,40.4518059848,-79.8879863611,42003130400,Homewood South,9,13,3-17,5,2,Eastern,Frick
1927970,983085,,,8017 NIMICK PL,City of Pittsburgh,1600,Building,RM-M,Public Sale,Available for Sale,Treasurer Sale,2017-10-27,2018-05-30,40.4501840087,-79.8836105804,42003130600,East Hills,9,13,3-17,5,2,Eastern,Frick
1927971,983082,,,7349 HAMILTON AVE,City of Pittsburgh,1230,Vacant Land,RM-M,URA Transfer,Available for Sale,Treasurer Sale,2017-10-27,2018-05-30,40.4539441134,-79.8936933683,42003130300,Homewood South,9,13,3-17,5,2,Eastern,Frick
1927972,176902,,,3403 REUBEN ST,City of Pittsburgh,2337,Vacant Land,H,Public Sale,Sale Pending,Treasurer Sale,2002-09-27,2017-06-08,40.4767772791,-80.036337833,42003270300,Brighton Heights,1,27,1-14,1,1,Northern,Riverview
1927973,184139,,,1225  SPRING GARDEN AVE,City of Pittsburgh,2500,Vacant Land,R1A-H,Public Sale,Sale Pending,Treasurer Sale,2015-08-14,2017-06-20,40.4600969952,-79.9907040622,42003241200,Spring Garden,1,24,1-5,1,1,Northern,Riverview
1927974,184075,,,1100  SPRING GARDEN AVE,City of Pittsburgh,3000,Vacant Land,R1A-H,Public Sale,Sale Pending,Treasurer Sale,2015-10-30,2017-06-20,40.4599888751,-79.9934044067,42003241200,Spring Garden,1,24,1-5,1,1,Northern,Riverview
1927975,914290,,,1232  BUTTERFIELD WAY,City of Pittsburgh,1650,Vacant Land,R1A-VH,Public Sale,Sale Pending,Treasurer Sale,2016-10-28,2017-06-26,40.4567343664,-80.0083412361,42003220600,Central Northside,1,22,1-21,1,1,Northern,Riverview
1927976,914299,,,1010  CONSTANCE ST,City of Pittsburgh,1260,Vacant Land,NDI,Public Sale,Sale Pending,Treasurer Sale,2016-10-28,2017-06-26,40.4575035306,-79.9942788732,42003563200,East Allegheny,1,23,1-5,1,1,Northern,Riverview
1927977,914300,,,916  CONSTANCE ST,City of Pittsburgh,1760,Building,R1A-VH,Public Sale,Sale Pending,Treasurer Sale,2016-10-28,2017-06-26,40.4569676918,-79.9940992447,42003563200,East Allegheny,1,23,1-5,1,1,Northern,Riverview
1927978,914301,,,910  CONSTANCE ST,City of Pittsburgh,1760,Vacant Land,R1A-VH,Public Sale,Sale Pending,Treasurer Sale,2016-10-28,2017-06-26,40.4567946675,-79.9940387012,42003563200,East Allegheny,1,23,1-5,1,1,Northern,Riverview
1927979,914329,,,1310  MARSHALL AVE,City of Pittsburgh,688,Vacant Land,R1A-VH,Public Sale,Sale Pending,Treasurer Sale,2016-08-19,2017-06-26,40.463759214,-80.0288133594,42003270400,Marshall-Shadeland,1,27,1-9,1,1,Northern,Riverview
1927980,914331,,,0  CALIFORNIA AVE,City of Pittsburgh,2264,Vacant Land,R1A-VH,Public Sale,Sale Pending,Treasurer Sale,2016-10-28,2017-06-26,40.4630677569,-80.0312320038,42003270400,Marshall-Shadeland,1,27,1-9,1,1,Northern,Riverview
1927981,914333,,,0  PERRYSVILLE AVE,City of Pittsburgh,9093,Vacant Land,R1D-H,Public Sale,Sale Pending,Treasurer Sale,2016-10-28,2017-06-26,40.4692934152,-80.0081517434,42003261400,Perry South,6,26,1-22,1,1,Northern,Riverview
1927982,914334,,,2303  HOLYOKE ST,City of Pittsburgh,3251,Vacant Land,H,Public Sale,Sale Pending,Treasurer Sale,2016-08-19,2017-06-26,40.4660413488,-80.0146578689,42003261400,Perry South,6,26,1-12,1,1,Northern,Riverview
1927983,914220,,,2562 -2564 CENTRE AVE,City of Pittsburgh,4532,Vacant Land,RM-H,Public Sale,Sale Pending,Treasurer Sale,2016-10-28,2017-06-26,40.4461804334,-79.9683667854,42003051000,Terrace Village,6,5,2-5,2,3,Central,Schenley
1927984,914256,,,944  MANTON WAY,City of Pittsburgh,1608,Vacant Land,R1D-H,Public Sale,Sale Pending,Treasurer Sale,2016-10-28,2017-06-26,40.4211956503,-79.9903935731,42003180300,Allentown,3,18,4-6,3,4,Southern,Emerald
1927985,914258,,,862  LILLIAN ST,City of Pittsburgh,2413,Vacant Land,R1D-H,Public Sale,Sale Pending,Treasurer Sale,2016-10-28,2017-06-26,40.4186215374,-79.991216855,42003180300,Allentown,3,18,4-6,3,4,Southern,Emerald
1927986,914272,,,0  GEARING AVE,City of Pittsburgh,4500,Vacant Land,R2-H,Public Sale,Sale Pending,Treasurer Sale,2016-08-19,2017-06-26,40.4149813799,-80.0045656678,42003562400,Beltzhoover,3,18,4-16,3,4,Southern,Emerald
1927987,914273,,,815  GEARING AVE,City of Pittsburgh,2500,Vacant Land,R2-H,Public Sale,Sale Pending,Treasurer Sale,2016-08-19,2017-06-26,40.4152277185,-80.0045733447,42003562400,Beltzhoover,3,18,4-16,3,4,Southern,Emerald
1927988,914274,,,813  GEARING AVE,City of Pittsburgh,2500,Vacant Land,R2-H,Public Sale,Sale Pending,Treasurer Sale,2016-08-19,2017-06-26,40.4152988732,-80.0045782807,42003562400,Beltzhoover,3,18,4-16,3,4,Southern,Emerald
1927989,914401,,,432  MOSGROVE ST,City of Pittsburgh,3690,Building,R2-L,Public Sale,Sale Pending,Treasurer Sale,2016-10-28,2017-06-26,40.3980434418,-79.9965541785,42003290100,Carrick,4,29,4-23,3,4,Southern,Schenley
1927990,914419,,,6620  ROWAN ST,City of Pittsburgh,6220,Building,RM-M,Public Sale,Sale Pending,Treasurer Sale,2016-08-19,2017-06-26,40.4647831895,-79.90410762,42003120300,Lincoln-Lemington-Belmar,9,12,3-15,5,2,Eastern,Highland
1927991,914453,,,7039  UPLAND ST,City of Pittsburgh,2000,Vacant Land,R2-L,Public Sale,Sale Pending,Treasurer Sale,2016-08-19,2017-06-26,40.4630154897,-79.8977982912,42003130100,Homewood North,9,13,3-18,5,2,Eastern,Highland
1927992,914456,,,7349  HERMITAGE ST,City of Pittsburgh,2180,Vacant Land,R2-L,Public Sale,Sale Pending,Treasurer Sale,2016-10-28,2017-06-26,40.4593871379,-79.8908776443,42003130200,Homewood North,9,13,3-17,5,2,Eastern,Highland
1927993,1104053,,,0 WEBSTER AVE,City of Pittsburgh,1139,Vacant Land,RM-M,Public Sale,Available for Sale,Treasurer Sale,2022-08-19,2022-12-21,40.4478671665,-79.9761744932,42003050100,Middle Hill,6,5,2-5,2,3,Central,Schenley
1927994,1104054,,,0 WEBSTER AVE,City of Pittsburgh,1537,Vacant Land,RM-M,Public Sale,Available for Sale,Treasurer Sale,2022-08-19,2022-12-21,40.4491431254,-79.9731667319,42003050100,Middle Hill,6,5,2-5,2,3,Central,Schenley
1927995,1104055,,,0 DUFF ST,City of Pittsburgh,808,Vacant Land,RM-M,Public Sale,Available for Sale,Treasurer Sale,2022-08-19,2022-12-21,40.4490260721,-79.9730926134,42003050100,Middle Hill,6,5,2-5,2,3,Central,Schenley
1927996,1104056,,,0 WYLIE AVE,City of Pittsburgh,966,Vacant Land,RM-M,Public Sale,Available for Sale,Treasurer Sale,2022-08-19,2022-12-21,40.4467806249,-79.9743039204,42003050100,Middle Hill,6,5,2-5,2,3,Central,Schenley
1927997,174091,,,3367 MILWAUKEE ST,City of Pittsburgh,2400,Vacant Land,R2-L,Public Sale,Sale Pending,Treasurer Sale,2002-10-31,2022-12-12,40.4538842839,-79.9623723454,42003050600,Upper Hill,6,5,2-22,2,3,Central,Schenley
1927998,1104057,,,0 WEBSTER AVE,City of Pittsburgh,2400,Vacant Land,R2-L,Public Sale,Available for Sale,Treasurer Sale,2022-08-19,2022-12-21,40.454082591,-79.9627221044,42003050600,Upper Hill,6,5,2-22,2,3,Central,Schenley
1927999,549964,,,753  CHEROKEE ST,City of Pittsburgh,,Vacant Land,R2-L,Public Sale,Sale Pending,Treasurer Sale,2016-04-29,2022-12-22,40.4518201769,-79.9613197386,42003050600,Upper Hill,6,5,2-22,2,3,Central,Schenley
1928000,175882,,,4806 YEW ST,City of Pittsburgh,2400,Vacant Land,R1A-H,Public Sale,Sale Pending,Treasurer Sale,1983-12-05,2022-12-12,40.4581029733,-79.9481019447,42003080200,Bloomfield,7,8,3-1,5,2,Central,Highland
1928001,175819,,,5389 CORNWALL ST,City of Pittsburgh,1800,Vacant Land,R1D-H,Public Sale,Sale Pending,Treasurer Sale,1948-06-07,2022-12-30,40.4694419885,-79.934147085,42003101600,Garfield,9,10,3-4,5,2,Central,Highland
1928002,954463,,,0 JORDAN WAY,City of Pittsburgh,1100,Vacant Land,R1D-H,Public Sale,Sale Pending,,1983-09-14,2022-12-22,40.4670584215,-79.9432807259,42003101700,Garfield,9,10,3-4,5,2,Central,Highland
1928003,1104058,,,6004 SAWYER ST,City of Pittsburgh,3540,Building,H,Public Sale,Available for Sale,Treasurer Sale,2022-08-19,2022-12-21,40.4860951545,-79.9418971416,42003101800,Stanton Heights,7,10,3-7,5,2,Central,Highland
1928004,1104059,,,6728 BUTLER ST,City of Pittsburgh,2000,Building,H,Public Sale,Available for Sale,Treasurer Sale,2022-08-19,2022-12-21,40.4892789062,-79.9275222826,42003101400,Morningside,7,10,3-7,5,2,Central,Highland
1928005,1104060,,,0 N GRAHAM ST,City of Pittsburgh,1774,Vacant Land,R2-H,Public Sale,Available for Sale,Treasurer Sale,2022-08-19,2022-12-21,40.4679833594,-79.9330990155,42003111400,Garfield,9,11,3-4,5,2,Central,Highland
1928006,1104061,,,0 DEARY ST,City of Pittsburgh,1500,Vacant Land,RM-M,Public Sale,Available for Sale,Treasurer Sale,2022-08-19,2022-12-21,40.4673946476,-79.906777269,42003120300,Lincoln-Lemington-Belmar,9,12,3-15,5,2,Eastern,Highland
1928007,1104062,,,0 DEARY ST,City of Pittsburgh,2500,Vacant Land,RM-M,Public Sale,Available for Sale,Treasurer Sale,2022-08-19,2022-12-21,40.4673552733,-79.9067137167,42003120300,Lincoln-Lemington-Belmar,9,12,3-15,5,2,Eastern,Highland
1928008,184245,,,16  SOUTH WHEELER ST,City of Pittsburgh,1300,Vacant Land,NDI,Public Sale,Sale Pending,Treasurer Sale,2014-04-25,2022-12-30,40.45468455929724,-79.88426273518535,42003130600,East Hills,9,13,3-17,5,2,Eastern,Frick
1928009,1104063,,,7134 HAMILTON AVE,City of Pittsburgh,2789,Building,R1A-M,URA Transfer,Available for Sale,Treasurer Sale,2022-08-19,2022-12-21,40.4545519333,-79.8983165393,42003130300,Homewood South,9,13,3-17,5,2,Eastern,Frick
1928010,1104066,,,0 MANSION ST,City of Pittsburgh,2880,Vacant Land,R1A-H,Public Sale,Available for Sale,Treasurer Sale,2022-08-19,2022-12-21,40.4037172528,-79.9410675925,42003562300,Hazelwood,5,15,2-13,4,3,Eastern,Frick
1928011,176614,,,27 ALMEDA ST,City of Pittsburgh,2880,Vacant Land,R1A-H,Public Sale,Sale Pending,Treasurer Sale,1985-10-07,2022-12-01,40.4033749526,-79.9407779095,42003562300,Hazelwood,5,15,2-13,4,3,Eastern,Eastern
1928012,1104067,,,0 HAZELWOOD AVE,City of Pittsburgh,2781,Vacant Land,R1D-H,Public Sale,Available for Sale,Treasurer Sale,2022-08-19,2022-12-21,40.4200055279,-79.9299472947,42003151700,Greenfield,5,15,2-12,4,3,Eastern,Schenley
1928013,1104109,,,0 CALERA ST,City of Pittsburgh,3782,Vacant Land,R2-L,URA Transfer,Available for Sale,Treasurer Sale,2022-08-19,2022-12-21,40.3831262008,-79.9331122513,42003562900,Hays,5,31,4-20,4,4,Eastern,Frick
1928014,179883,,,174 MCKNIGHT ST,City of Pittsburgh,1700,Vacant Land,LNC,Public Sale,Sale Pending,Treasurer Sale,2005-12-02,2022-12-22,40.4352175515,-80.0331504225,42003562600,West End,2,20,1-17,6,5,Northern,Emerald
1928015,1104073,,,1225 CHARTIERS AVE,City of Pittsburgh,126324,Building,P,Public Sale,Available for Sale,Treasurer Sale,2022-08-19,2022-12-21,40.446052951,-80.0445759112,42003281400,Crafton Heights,2,20,1-17,6,5,Northern,Emerald
1928016,1104074,,,200 SAGAMORE ST,City of Pittsburgh,3000,Building,R1D-H,Public Sale,Available for Sale,Treasurer Sale,2022-08-19,2022-12-21,40.4637755433,-80.0533353881,42003562500,Esplen,2,20,1-27,6,5,Northern,Emerald
1928017,1104075,,,0 SAGAMORE ST,City of Pittsburgh,3000,Vacant Land,R1D-H,Public Sale,Available for Sale,Treasurer Sale,2022-08-19,2022-12-21,40.4632653533,-80.0534358284,42003562500,Esplen,2,20,1-27,6,5,Northern,Emerald
1928018,1104076,,,0 SAGAMORE ST,City of Pittsburgh,6000,Vacant Land,R1D-H,Public Sale,Available for Sale,Treasurer Sale,2022-08-19,2022-12-21,40.4633618141,-80.0531500451,42003562500,Esplen,2,20,1-27,6,5,Northern,Emerald
1928019,1104077,,,0 W CARSON ST,City of Pittsburgh,1452,Vacant Land,UI,Public Sale,Available for Sale,Treasurer Sale,2022-08-19,2022-12-21,40.4638322292,-80.0529586404,42003562500,Esplen,2,20,1-27,6,5,Northern,Emerald
1928020,1104078,,,0 W CARSON ST,City of Pittsburgh,1654,Vacant Land,UI,Public Sale,Available for Sale,Treasurer Sale,2022-08-19,2022-12-21,40.4637745257,-80.0529214532,42003562500,Esplen,2,20,1-27,6,5,Northern,Emerald
1928021,1104079,,,0 SPRING GARDEN AVE,City of Pittsburgh,1132,Vacant Land,R1A-VH,URA Transfer,Available for Sale,Treasurer Sale,2022-08-19,2022-12-21,40.4574312728,-79.9962905971,42003563200,East Allegheny,1,23,1-5,1,1,Northern,Riverview
1928022,1104080,,,1112 HIGH ST,City of Pittsburgh,7074,Building,R1D-M,URA Transfer,Available for Sale,Treasurer Sale,2022-08-19,2022-12-21,40.4606587441,-79.9932066232,42003241200,Spring Garden,1,24,1-5,1,1,Northern,Riverview
1928023,1104081,,,1134 HIGH ST,City of Pittsburgh,980,Building,R1D-M,URA Transfer,Available for Sale,Treasurer Sale,2022-08-19,2022-12-21,40.4605685068,-79.9922843596,42003241200,Spring Garden,1,24,1-5,1,1,Northern,Riverview
1928024,1104082,,,1104 HIGH ST,City of Pittsburgh,3475,Building,R1D-M,URA Transfer,Available for Sale,Treasurer Sale,2022-08-19,2022-12-21,40.4604312983,-79.9934519983,42003241200,Spring Garden,1,24,1-5,1,1,Northern,Riverview
1928025,1104083,,,1238 HIGH ST,City of Pittsburgh,5473,Building,R1D-M,URA Transfer,Available for Sale,Treasurer Sale,2022-08-19,2022-12-21,40.4611481768,-79.9903585986,42003241200,Spring Garden,1,24,1-5,1,1,Northern,Riverview
1928026,1104084,,,1221 HIGH ST,City of Pittsburgh,1500,Building,R1A-VH,URA Transfer,Available for Sale,Treasurer Sale,2022-08-19,2022-12-21,40.4605526549,-79.9909127156,42003241200,Spring Garden,1,24,1-5,1,1,Northern,Riverview
1928027,1104085,,,0 SPRING GARDEN AVE,City of Pittsburgh,1500,Vacant Land,R1A-VH,URA Transfer,Available for Sale,Treasurer Sale,2022-08-19,2022-12-21,40.4604786525,-79.990423946,42003241200,Spring Garden,1,24,1-5,1,1,Northern,Riverview
1928028,1104086,,,1257 HIGH ST,City of Pittsburgh,1500,Building,R1A-VH,URA Transfer,Available for Sale,Treasurer Sale,2022-08-19,2022-12-21,40.4608089298,-79.9895820039,42003241200,Spring Garden,1,24,1-5,1,1,Northern,Riverview
1928029,1104087,,,2117 WILSON AVE,City of Pittsburgh,3960,Building,R1D-H,URA Transfer,Available for Sale,Treasurer Sale,2022-08-19,2022-12-21,40.4641676106,-80.0127709908,42003261400,Perry South,6,25,1-10,1,1,Northern,Riverview
1928030,1104088,,,0 WILSON AVE,City of Pittsburgh,2448,Vacant Land,R1D-H,URA Transfer,Available for Sale,Treasurer Sale,2022-08-19,2022-12-21,40.46441015,-80.0128225762,42003261400,Perry South,6,25,1-10,1,1,Northern,Riverview
1928031,1104089,,,1945 LETSCHE ST,City of Pittsburgh,4416,Building,R1D-L,URA Transfer,Available for Sale,Treasurer Sale,2022-08-19,2022-12-21,40.4637149534,-80.0090044685,42003250900,Fineview,6,25,1-10,1,1,Northern,Riverview
1928032,1104090,,,1930 MEADVILLE ST,City of Pittsburgh,8000,Building,R1D-L,URA Transfer,Available for Sale,Treasurer Sale,2022-08-19,2022-12-21,40.4633929064,-80.0057470718,42003250900,Fineview,1,25,1-10,1,1,Northern,Riverview
1928033,1104094,,,40 W MCINTYRE AVE,City of Pittsburgh,3325,Building,H,Public Sale,Available for Sale,Treasurer Sale,2022-08-19,2022-12-21,40.4688618306,-80.010911508,42003261400,Perry South,6,26,1-12,1,1,Northern,Riverview
